$ADVER,3080,2.3
$GPRMC,155653.701,A,3746.5587,N,12223.7432,W,0.09,96.39,010410,,,A*48
$GPRMC,155658.000,A,3746.5583,N,12223.7422,W,0.00,96.39,010410,,,A*49
$GPRMC,155703.000,A,3746.5583,N,12223.7422,W,0.00,96.39,010410,,,A*46
$GPRMC,155708.000,A,3746.5583,N,12223.7422,W,0.00,96.39,010410,,,A*4D
$GPRMC,155713.000,A,3746.5583,N,12223.7422,W,0.00,96.39,010410,,,A*47
$GPRMC,155718.000,A,3746.5583,N,12223.7422,W,0.00,96.39,010410,,,A*4C
$GPRMC,155723.000,A,3746.5583,N,12223.7422,W,0.00,96.39,010410,,,A*44
$GPRMC,155728.000,A,3746.5583,N,12223.7422,W,0.00,96.39,010410,,,A*4F
$GPRMC,155733.000,A,3746.5583,N,12223.7422,W,0.00,96.39,010410,,,A*45
$GPRMC,155738.000,A,3746.5583,N,12223.7422,W,0.00,96.39,010410,,,A*4E
$GPRMC,155743.000,A,3746.5583,N,12223.7422,W,0.00,96.39,010410,,,A*42
$GPRMC,155748.000,A,3746.5583,N,12223.7422,W,0.00,96.39,010410,,,A*49
$GPRMC,155753.000,A,3746.5583,N,12223.7422,W,0.00,96.39,010410,,,A*43
$GPRMC,155758.000,A,3746.5583,N,12223.7422,W,0.00,96.39,010410,,,A*48
$GPRMC,155803.000,A,3746.5583,N,12223.7422,W,0.00,96.39,010410,,,A*49
$GPRMC,155808.000,A,3746.5583,N,12223.7422,W,0.00,96.39,010410,,,A*42
$GPRMC,155813.000,A,3746.5583,N,12223.7422,W,0.00,96.39,010410,,,A*48
$GPRMC,155818.000,A,3746.5583,N,12223.7422,W,0.00,96.39,010410,,,A*43
$GPRMC,155823.000,A,3746.5583,N,12223.7422,W,0.00,96.39,010410,,,A*4B
$GPRMC,155828.000,A,3746.5583,N,12223.7422,W,0.00,96.39,010410,,,A*40
$GPRMC,155833.000,A,3746.5583,N,12223.7422,W,0.00,96.39,010410,,,A*4A
$GPRMC,155838.000,A,3746.5583,N,12223.7422,W,0.00,96.39,010410,,,A*41
$GPRMC,155843.000,A,3746.5583,N,12223.7422,W,0.00,96.39,010410,,,A*4D
$GPRMC,155848.000,A,3746.5583,N,12223.7422,W,0.00,96.39,010410,,,A*46
$GPRMC,155853.000,A,3746.5583,N,12223.7422,W,0.00,96.39,010410,,,A*4C
$GPRMC,155858.000,A,3746.5583,N,12223.7422,W,0.00,96.39,010410,,,A*47
$GPRMC,155903.000,A,3746.5583,N,12223.7422,W,0.00,96.39,010410,,,A*48
$GPRMC,155908.000,A,3746.5583,N,12223.7422,W,0.00,96.39,010410,,,A*43
$GPRMC,155913.000,A,3746.5583,N,12223.7422,W,0.00,96.39,010410,,,A*49
$GPRMC,155918.000,A,3746.5583,N,12223.7422,W,0.00,96.39,010410,,,A*42
$GPRMC,155923.000,A,3746.5583,N,12223.7422,W,0.00,96.39,010410,,,A*4A
$GPRMC,155928.000,A,3746.5583,N,12223.7422,W,0.00,96.39,010410,,,A*41
$GPRMC,155933.000,A,3746.5583,N,12223.7422,W,0.00,96.39,010410,,,A*4B
$GPRMC,155938.000,A,3746.5477,N,12223.7331,W,3.41,221.92,010410,,,A*76
$GPRMC,155943.000,A,3746.5430,N,12223.7385,W,5.95,223.15,010410,,,A*74
$GPRMC,155948.000,A,3746.5355,N,12223.7478,W,9.22,224.25,010410,,,A*7A
$GPRMC,155953.000,A,3746.5243,N,12223.7616,W,13.10,224.43,010410,,,A*46
$GPRMC,155958.000,A,3746.5103,N,12223.7790,W,13.54,224.25,010410,,,A*45
$GPRMC,160003.000,A,3746.4990,N,12223.7931,W,9.32,223.95,010410,,,A*75
$GPRMC,160008.000,A,3746.4922,N,12223.8019,W,5.24,223.94,010410,,,A*71
$GPRMC,160013.000,A,3746.4871,N,12223.8083,W,6.07,222.95,010410,,,A*7D
$GPRMC,160018.000,A,3746.4794,N,12223.8176,W,9.38,224.57,010410,,,A*72
$GPRMC,160023.000,A,3746.4686,N,12223.8316,W,12.78,227.67,010410,,,A*42
$GPRMC,160028.000,A,3746.4570,N,12223.8493,W,12.90,230.56,010410,,,A*4B
$GPRMC,160033.000,A,3746.4460,N,12223.8667,W,12.44,230.85,010410,,,A*4F
$GPRMC,160038.000,A,3746.4352,N,12223.8833,W,11.88,227.82,010410,,,A*4F
$GPRMC,160043.000,A,3746.4243,N,12223.8979,W,10.99,224.34,010410,,,A*42
$GPRMC,160048.000,A,3746.4140,N,12223.9111,W,10.21,224.56,010410,,,A*49
$GPRMC,160053.000,A,3746.4044,N,12223.9236,W,9.69,224.37,010410,,,A*73
$GPRMC,160058.000,A,3746.3953,N,12223.9353,W,9.22,224.62,010410,,,A*7D
$GPRMC,160103.000,A,3746.3874,N,12223.9462,W,7.89,220.66,010410,,,A*7C
$GPRMC,160108.000,A,3746.3804,N,12223.9556,W,7.62,223.23,010410,,,A*71
$GPRMC,160113.000,A,3746.3719,N,12223.9657,W,7.85,222.10,010410,,,A*72
$GPRMC,160118.000,A,3746.3641,N,12223.9749,W,7.23,220.43,010410,,,A*73
$GPRMC,160123.000,A,3746.3568,N,12223.9838,W,6.85,219.55,010410,,,A*7A
$GPRMC,160128.000,A,3746.3497,N,12223.9911,W,6.28,215.15,010410,,,A*75
$GPRMC,160133.000,A,3746.3428,N,12223.9966,W,5.48,208.28,010410,,,A*7C
$GPRMC,160138.000,A,3746.3366,N,12224.0009,W,4.79,205.53,010410,,,A*76
$GPRMC,160143.000,A,3746.3313,N,12224.0043,W,3.82,200.97,010410,,,A*78
$GPRMC,160148.000,A,3746.3271,N,12224.0067,W,2.94,196.78,010410,,,A*7B
$GPRMC,160153.000,A,3746.3241,N,12224.0084,W,2.04,193.53,010410,,,A*7A
$GPRMC,160158.000,A,3746.3236,N,12224.0085,W,0.00,193.53,010410,,,A*76
$GPRMC,160203.000,A,3746.3236,N,12224.0085,W,0.00,193.53,010410,,,A*7B
$GPRMC,160208.000,A,3746.3236,N,12224.0085,W,0.00,193.53,010410,,,A*70
$GPRMC,160213.000,A,3746.3236,N,12224.0085,W,0.00,193.53,010410,,,A*7A
$GPRMC,160218.000,A,3746.3236,N,12224.0085,W,0.00,193.53,010410,,,A*71
$GPRMC,160223.000,A,3746.3236,N,12224.0085,W,0.00,193.53,010410,,,A*79
$GPRMC,160228.000,A,3746.3236,N,12224.0085,W,0.00,193.53,010410,,,A*72
$GPRMC,160233.000,A,3746.3236,N,12224.0085,W,0.00,193.53,010410,,,A*78
$GPRMC,160238.000,A,3746.3236,N,12224.0085,W,0.00,193.53,010410,,,A*73
$GPRMC,160243.000,A,3746.3236,N,12224.0085,W,0.00,193.53,010410,,,A*7F
$GPRMC,160248.000,A,3746.3236,N,12224.0085,W,0.00,193.53,010410,,,A*74
$GPRMC,160253.000,A,3746.3225,N,12224.0112,W,0.06,105.15,010410,,,D*7D
$GPRMC,160258.000,A,3746.3226,N,12224.0112,W,0.03,93.24,010410,,,D*4C
$GPRMC,160303.000,A,3746.3226,N,12224.0112,W,0.08,118.49,010410,,,D*71
$GPRMC,160308.000,A,3746.3226,N,12224.0112,W,0.10,130.53,010410,,,D*72
$GPRMC,160313.000,A,3746.3226,N,12224.0111,W,0.11,114.18,010410,,,D*73
$GPRMC,160318.000,A,3746.3226,N,12224.0110,W,0.10,119.35,010410,,,D*7A
$GPRMC,160323.000,A,3746.3226,N,12224.0110,W,0.09,128.15,010410,,,D*7A
$GPRMC,160328.000,A,3746.3226,N,12224.0110,W,0.15,142.03,010410,,,D*77
$GPRMC,160333.000,A,3746.3225,N,12224.0109,W,0.12,112.63,010410,,,D*72
$GPRMC,160338.000,A,3746.3226,N,12224.0108,W,0.11,121.38,010410,,,D*76
$GPRMC,160343.000,A,3746.3225,N,12224.0108,W,0.12,132.64,010410,,,D*71
$GPRMC,160348.000,A,3746.3225,N,12224.0108,W,0.10,105.20,010410,,,D*7C
$GPRMC,160353.000,A,3746.3221,N,12224.0109,W,0.98,178.11,010410,,,D*7B
$GPRMC,160358.000,A,3746.3194,N,12224.0117,W,2.91,188.37,010410,,,D*72
$GPRMC,160403.000,A,3746.3135,N,12224.0131,W,5.72,189.61,010410,,,D*7C
$GPRMC,160408.000,A,3746.3032,N,12224.0147,W,8.93,183.58,010410,,,D*72
$GPRMC,160413.000,A,3746.2882,N,12224.0146,W,12.61,175.13,010410,,,D*4B
$GPRMC,160418.000,A,3746.2683,N,12224.0099,W,16.29,163.12,010410,,,D*42
$GPRMC,160423.000,A,3746.2453,N,12223.9968,W,19.92,147.25,010410,,,D*41
$GPRMC,160428.000,A,3746.2217,N,12223.9722,W,23.11,135.03,010410,,,D*4F
$GPRMC,160433.000,A,3746.1964,N,12223.9410,W,26.08,134.59,010410,,,D*48
$GPRMC,160438.000,A,3746.1686,N,12223.9071,W,28.84,135.22,010410,,,D*44
$GPRMC,160443.000,A,3746.1389,N,12223.8704,W,29.12,134.86,010410,,,D*47
$GPRMC,160448.000,A,3746.1074,N,12223.8343,W,27.93,132.35,010410,,,D*43
$GPRMC,160453.000,A,3746.0834,N,12223.8019,W,25.95,131.10,010410,,,D*48
$GPRMC,160458.000,A,3746.0600,N,12223.7687,W,26.28,129.64,010410,,,E*4A
$GPRMC,160503.000,A,3746.0366,N,12223.7333,W,26.28,129.64,010410,,,E*4A
$GPRMC,160508.000,A,3746.0133,N,12223.6978,W,26.28,129.64,010410,,,E*47
$GPRMC,160518.000,A,3745.9577,N,12223.6420,W,26.13,141.31,010410,,,A*4A
$GPRMC,160523.000,A,3745.9216,N,12223.6130,W,26.63,153.58,010410,,,A*4D
$GPRMC,160528.000,A,3745.8730,N,12223.5964,W,32.94,170.17,010410,,,A*4B
$GPRMC,160533.000,A,3745.8223,N,12223.5851,W,34.12,173.27,010410,,,E*4D
$GPRMC,160538.000,A,3745.7752,N,12223.5781,W,34.12,173.27,010410,,,E*48
$GPRMC,160543.000,A,3745.7281,N,12223.5711,W,34.12,173.27,010410,,,E*46
$GPRMC,160608.000,A,3745.4709,N,12223.5606,W,19.46,164.72,010410,,,A*47
$GPRMC,160613.000,A,3745.4464,N,12223.5552,W,13.53,175.25,010410,,,A*4B
$GPRMC,160618.000,A,3745.4328,N,12223.5540,W,8.03,175.15,010410,,,A*70
$GPRMC,160623.000,A,3745.4256,N,12223.5559,W,2.72,183.69,010410,,,A*76
$GPRMC,160628.000,A,3745.4226,N,12223.5576,W,0.00,165.80,010410,,,A*7F
$GPRMC,160633.000,A,3745.4226,N,12223.5576,W,0.00,165.80,010410,,,A*75
$GPRMC,160638.000,A,3745.4226,N,12223.5576,W,0.00,165.80,010410,,,A*7E
$GPRMC,160643.000,A,3745.4226,N,12223.5576,W,0.00,165.80,010410,,,A*72
$GPRMC,160648.000,A,3745.4226,N,12223.5576,W,0.00,165.80,010410,,,A*79
$GPRMC,160653.000,A,3745.4226,N,12223.5576,W,0.00,165.80,010410,,,A*73
$GPRMC,160658.000,A,3745.4226,N,12223.5576,W,0.00,165.80,010410,,,A*78
$GPRMC,160703.000,A,3745.4226,N,12223.5576,W,0.00,165.80,010410,,,A*77
$GPRMC,160708.000,A,3745.4226,N,12223.5576,W,0.00,165.80,010410,,,A*7C
$GPRMC,160713.000,A,3745.4226,N,12223.5576,W,0.00,165.80,010410,,,A*76
$GPRMC,160718.000,A,3745.4120,N,12223.5538,W,2.67,195.20,010410,,,A*74
$GPRMC,160723.000,A,3745.4088,N,12223.5563,W,7.03,179.02,010410,,,A*74
$GPRMC,160728.000,A,3745.3980,N,12223.5586,W,10.59,183.70,010410,,,A*4B
$GPRMC,160733.000,A,3745.3799,N,12223.5574,W,14.95,179.45,010410,,,A*4D
$GPRMC,160738.000,A,3745.3552,N,12223.5585,W,18.72,184.14,010410,,,A*4E
$GPRMC,160743.000,A,3745.3267,N,12223.5657,W,22.38,188.28,010410,,,A*4B
$GPRMC,160748.000,A,3745.2947,N,12223.5676,W,24.81,187.47,010410,,,A*49
$GPRMC,160753.000,A,3745.2606,N,12223.5719,W,24.55,186.31,010410,,,E*4C
$GPRMC,160758.000,A,3745.2266,N,12223.5767,W,24.55,186.31,010410,,,E*4C
$GPRMC,160803.000,A,3745.1927,N,12223.5814,W,24.55,186.31,010410,,,E*4B
$GPRMC,160813.000,A,3745.0725,N,12223.5978,W,36.41,187.53,010410,,,A*4B
$GPRMC,160818.000,A,3745.0206,N,12223.5989,W,38.30,186.14,010410,,,A*40
$GPRMC,160823.000,A,3744.9659,N,12223.6055,W,40.08,186.10,010410,,,A*45
$GPRMC,160828.000,A,3744.9088,N,12223.6115,W,41.78,185.65,010410,,,A*46
$GPRMC,160833.000,A,3744.8495,N,12223.6181,W,43.34,186.88,010410,,,A*42
$GPRMC,160838.000,A,3744.7888,N,12223.6255,W,44.69,187.71,010410,,,A*44
$GPRMC,160843.000,A,3744.7241,N,12223.6349,W,47.14,187.61,010410,,,A*43
$GPRMC,160848.000,A,3744.6577,N,12223.6436,W,48.48,186.05,010410,,,D*44
$GPRMC,160853.000,A,3744.5895,N,12223.6520,W,49.82,185.91,010410,,,D*43
$GPRMC,160858.000,A,3744.5195,N,12223.6607,W,51.23,186.20,010410,,,D*4C
$GPRMC,160903.000,A,3744.4476,N,12223.6699,W,52.64,186.24,010410,,,D*49
$GPRMC,160908.000,A,3744.3740,N,12223.6799,W,53.78,186.09,010410,,,D*41
$GPRMC,160913.000,A,3744.2987,N,12223.6899,W,54.97,186.08,010410,,,D*47
$GPRMC,160918.000,A,3744.2222,N,12223.7009,W,55.90,187.40,010410,,,D*43
$GPRMC,160923.000,A,3744.1446,N,12223.7115,W,56.13,185.77,010410,,,E*4F
$GPRMC,160928.000,A,3744.0670,N,12223.7214,W,56.13,185.77,010410,,,E*40
$GPRMC,160933.000,A,3743.9893,N,12223.7313,W,56.13,185.77,010410,,,E*41
$GPRMC,160948.000,A,3743.7337,N,12223.7710,W,61.92,186.29,010410,,,A*40
$GPRMC,160953.000,A,3743.6482,N,12223.7831,W,62.61,186.43,010410,,,D*48
$GPRMC,160958.000,A,3743.5608,N,12223.7950,W,63.50,186.35,010410,,,D*44
$GPRMC,161003.000,A,3743.4727,N,12223.8119,W,64.40,190.38,010410,,,D*49
$GPRMC,161008.000,A,3743.3847,N,12223.8372,W,65.20,195.02,010410,,,D*48
$GPRMC,161013.000,A,3743.2968,N,12223.8689,W,65.57,195.99,010410,,,D*4C
$GPRMC,161018.000,A,3743.2092,N,12223.9005,W,65.50,195.97,010410,,,E*40
$GPRMC,161023.000,A,3743.1217,N,12223.9321,W,65.50,195.97,010410,,,E*41
$GPRMC,161028.000,A,3743.0341,N,12223.9636,W,65.50,195.97,010410,,,E*4A
$GPRMC,161058.000,A,3742.6586,N,12224.1073,W,48.47,193.22,010410,,,A*4A
$GPRMC,161103.000,A,3742.5961,N,12224.1172,W,49.61,188.51,010410,,,A*48
$GPRMC,161108.000,A,3742.5268,N,12224.1217,W,51.04,181.21,010410,,,A*45
$GPRMC,161113.000,A,3742.4546,N,12224.1211,W,52.31,180.18,010410,,,A*4D
$GPRMC,161118.000,A,3742.3803,N,12224.1207,W,54.18,180.12,010410,,,A*4D
$GPRMC,161123.000,A,3742.3039,N,12224.1203,W,55.67,179.47,010410,,,A*4F
$GPRMC,161128.000,A,3742.2247,N,12224.1170,W,57.11,179.75,010410,,,A*4B
$GPRMC,161133.000,A,3742.1444,N,12224.1170,W,58.38,180.00,010410,,,A*47
$GPRMC,161138.000,A,3742.0624,N,12224.1172,W,59.54,180.06,010410,,,A*46
$GPRMC,161143.000,A,3741.9789,N,12224.1175,W,60.65,180.20,010410,,,A*4D
$GPRMC,161148.000,A,3741.8939,N,12224.1177,W,61.58,179.91,010410,,,A*43
$GPRMC,161153.000,A,3741.8085,N,12224.1179,W,61.26,179.97,010410,,,A*46
$GPRMC,161158.000,A,3741.7235,N,12224.1176,W,61.22,178.78,010410,,,A*40
$GPRMC,161203.000,A,3741.6386,N,12224.1108,W,61.09,173.81,010410,,,A*48
$GPRMC,161208.000,A,3741.5551,N,12224.0945,W,60.62,168.86,010410,,,A*4D
$GPRMC,161213.000,A,3741.4728,N,12224.0676,W,60.44,163.96,010410,,,A*4B
$GPRMC,161218.000,A,3741.3935,N,12224.0338,W,60.40,159.05,010410,,,A*4D
$GPRMC,161223.000,A,3741.3167,N,12223.9915,W,60.35,154.19,010410,,,A*43
$GPRMC,161228.000,A,3741.2430,N,12223.9408,W,60.00,149.26,010410,,,A*49
$GPRMC,161233.000,A,3741.1713,N,12223.8806,W,60.86,146.20,010410,,,A*46
$GPRMC,161238.000,A,3741.1006,N,12223.8204,W,60.94,146.28,010410,,,A*4D
$GPRMC,161243.000,A,3741.0300,N,12223.7608,W,61.05,146.28,010410,,,A*4B
$GPRMC,161248.000,A,3740.9594,N,12223.7015,W,61.01,146.27,010410,,,A*42
$GPRMC,161253.000,A,3740.8894,N,12223.6408,W,61.29,144.80,010410,,,A*48
$GPRMC,161258.000,A,3740.8193,N,12223.5799,W,61.33,146.12,010410,,,A*47
$GPRMC,161303.000,A,3740.7483,N,12223.5204,W,61.38,146.20,010410,,,A*48
$GPRMC,161308.000,A,3740.6765,N,12223.4613,W,61.27,148.38,010410,,,A*43
$GPRMC,161313.000,A,3740.6004,N,12223.4129,W,61.11,158.62,010410,,,A*4C
$GPRMC,161318.000,A,3740.5192,N,12223.3859,W,60.77,170.28,010410,,,A*46
$GPRMC,161323.000,A,3740.4349,N,12223.3825,W,60.58,181.33,010410,,,A*49
$GPRMC,161328.000,A,3740.3510,N,12223.3981,W,60.62,193.06,010410,,,A*4C
$GPRMC,161333.000,A,3740.2725,N,12223.4324,W,60.44,204.24,010410,,,A*48
$GPRMC,161338.000,A,3740.1997,N,12223.4855,W,60.40,214.69,010410,,,A*46
$GPRMC,161343.000,A,3740.1326,N,12223.5494,W,60.42,217.21,010410,,,A*47
$GPRMC,161348.000,A,3740.0657,N,12223.6135,W,60.42,217.20,010410,,,A*42
$GPRMC,161353.000,A,3739.9992,N,12223.6778,W,60.42,217.38,010410,,,A*4F
$GPRMC,161358.000,A,3739.9324,N,12223.7422,W,60.57,217.32,010410,,,A*40
$GPRMC,161403.000,A,3739.8652,N,12223.8073,W,61.17,217.42,010410,,,A*41
$GPRMC,161408.000,A,3739.7972,N,12223.8733,W,61.99,217.49,010410,,,A*46
$GPRMC,161413.000,A,3739.7280,N,12223.9392,W,63.12,217.32,010410,,,A*49
$GPRMC,161418.000,A,3739.6581,N,12224.0066,W,63.56,217.21,010410,,,A*41
$GPRMC,161423.000,A,3739.5876,N,12224.0750,W,64.30,217.38,010410,,,A*42
$GPRMC,161428.000,A,3739.5162,N,12224.1441,W,65.00,217.33,010410,,,A*4E
$GPRMC,161433.000,A,3739.4440,N,12224.2139,W,65.63,217.34,010410,,,A*4B
$GPRMC,161438.000,A,3739.3714,N,12224.2842,W,66.03,217.41,010410,,,A*47
$GPRMC,161443.000,A,3739.2997,N,12224.3573,W,66.59,217.53,010410,,,A*4D
$GPRMC,161448.000,A,3739.2261,N,12224.4282,W,65.63,216.08,010410,,,A*4F
$GPRMC,161453.000,A,3739.1501,N,12224.4948,W,66.98,213.46,010410,,,A*42
$GPRMC,161458.000,A,3739.0723,N,12224.5579,W,66.52,212.96,010410,,,A*4F
$GPRMC,161503.000,A,3738.9945,N,12224.6207,W,66.49,212.33,010410,,,A*4E
$GPRMC,161508.000,A,3738.9136,N,12224.6782,W,67.05,206.60,010410,,,A*4B
$GPRMC,161513.000,A,3738.8283,N,12224.7251,W,67.35,200.43,010410,,,A*43
$GPRMC,161518.000,A,3738.7388,N,12224.7602,W,67.57,194.51,010410,,,A*46
$GPRMC,161523.000,A,3738.6466,N,12224.7837,W,67.77,188.76,010410,,,A*4A
$GPRMC,161528.000,A,3738.5533,N,12224.7954,W,67.21,183.07,010410,,,A*49
$GPRMC,161533.000,A,3738.4615,N,12224.7960,W,64.26,179.09,010410,,,A*4D
$GPRMC,161538.000,A,3738.3755,N,12224.7936,W,59.58,178.94,010410,,,A*45
$GPRMC,161543.000,A,3738.2961,N,12224.7913,W,54.79,178.93,010410,,,A*4F
$GPRMC,161548.000,A,3738.2224,N,12224.7889,W,52.24,178.93,010410,,,A*42
$GPRMC,161553.000,A,3738.1506,N,12224.7868,W,51.41,178.97,010410,,,A*47
$GPRMC,161558.000,A,3738.0795,N,12224.7847,W,50.86,178.97,010410,,,A*42
$GPRMC,161603.000,A,3738.0105,N,12224.7822,W,50.63,175.90,010410,,,A*42
$GPRMC,161608.000,A,3737.9411,N,12224.7664,W,51.25,163.41,010410,,,A*4B
$GPRMC,161613.000,A,3737.8737,N,12224.7321,W,53.06,155.48,010410,,,A*4C
$GPRMC,161618.000,A,3737.8051,N,12224.6922,W,55.02,155.33,010410,,,A*46
$GPRMC,161623.000,A,3737.7344,N,12224.6515,W,56.53,155.38,010410,,,A*42
$GPRMC,161628.000,A,3737.6620,N,12224.6096,W,57.86,155.34,010410,,,A*44
$GPRMC,161633.000,A,3737.5880,N,12224.5668,W,59.02,155.38,010410,,,A*43
$GPRMC,161638.000,A,3737.5126,N,12224.5231,W,60.09,154.88,010410,,,A*4E
$GPRMC,161643.000,A,3737.4363,N,12224.4776,W,61.20,154.43,010410,,,A*4A
$GPRMC,161648.000,A,3737.3590,N,12224.4307,W,62.26,153.72,010410,,,A*4E
$GPRMC,161653.000,A,3737.2826,N,12224.3779,W,63.15,149.24,010410,,,A*46
$GPRMC,161658.000,A,3737.2053,N,12224.3186,W,64.15,149.00,010410,,,A*40
$GPRMC,161703.000,A,3737.1276,N,12224.2593,W,65.37,149.55,010410,,,A*49
$GPRMC,161708.000,A,3737.0496,N,12224.1997,W,65.67,149.05,010410,,,A*40
$GPRMC,161713.000,A,3736.9710,N,12224.1397,W,66.24,149.04,010410,,,A*40
$GPRMC,161718.000,A,3736.8919,N,12224.0799,W,66.57,149.15,010410,,,A*42
$GPRMC,161723.000,A,3736.8122,N,12224.0191,W,67.07,148.80,010410,,,A*4D
$GPRMC,161728.000,A,3736.7325,N,12223.9581,W,67.84,146.59,010410,,,A*46
$GPRMC,161733.000,A,3736.6561,N,12223.8874,W,68.30,141.73,010410,,,A*42
$GPRMC,161738.000,A,3736.5819,N,12223.8129,W,67.99,141.23,010410,,,D*45
$GPRMC,161743.000,A,3736.5094,N,12223.7388,W,66.26,141.05,010410,,,D*43
$GPRMC,161748.000,A,3736.4406,N,12223.6678,W,61.46,140.11,010410,,,D*48
$GPRMC,161753.000,A,3736.3772,N,12223.6033,W,55.83,141.06,010410,,,D*45
$GPRMC,161758.000,A,3736.3210,N,12223.5462,W,49.07,141.04,010410,,,D*4F
$GPRMC,161803.000,A,3736.2718,N,12223.4960,W,43.18,140.89,010410,,,D*4C
$GPRMC,161808.000,A,3736.2274,N,12223.4508,W,39.68,141.25,010410,,,D*47
$GPRMC,161813.000,A,3736.1865,N,12223.4093,W,36.88,141.28,010410,,,D*4F
$GPRMC,161818.000,A,3736.1480,N,12223.3703,W,34.64,141.40,010410,,,D*44
$GPRMC,161823.000,A,3736.1122,N,12223.3342,W,31.98,141.22,010410,,,D*42
$GPRMC,161828.000,A,3736.0797,N,12223.3012,W,28.23,141.08,010410,,,D*46
$GPRMC,161833.000,A,3736.0532,N,12223.2742,W,21.76,141.12,010410,,,D*40
$GPRMC,161838.000,A,3736.0335,N,12223.2544,W,15.71,141.35,010410,,,D*4B
$GPRMC,161843.000,A,3736.0199,N,12223.2409,W,10.81,142.02,010410,,,D*46
$GPRMC,161848.000,A,3736.0106,N,12223.2312,W,7.42,139.98,010410,,,D*70
$GPRMC,161853.000,A,3736.0048,N,12223.2275,W,4.54,168.09,010410,,,D*79
$GPRMC,161858.000,A,3736.0045,N,12223.2232,W,0.67,32.84,010410,,,D*43
$GPRMC,161903.000,A,3736.0054,N,12223.2223,W,0.11,147.52,010410,,,D*75
$GPRMC,161908.000,A,3736.0068,N,12223.2211,W,0.00,203.86,010410,,,A*7F
$GPRMC,161913.000,A,3736.0068,N,12223.2211,W,0.00,203.86,010410,,,A*75
$GPRMC,161918.000,A,3736.0068,N,12223.2211,W,0.00,203.86,010410,,,A*7E
$GPRMC,161923.000,A,3736.0068,N,12223.2211,W,0.00,203.86,010410,,,A*76
$GPRMC,161928.000,A,3736.0068,N,12223.2211,W,0.00,203.86,010410,,,A*7D
$GPRMC,161933.000,A,3736.0068,N,12223.2211,W,0.00,203.86,010410,,,A*77
$GPRMC,161938.000,A,3736.0068,N,12223.2211,W,0.00,203.86,010410,,,A*7C
$GPRMC,161943.000,A,3736.0068,N,12223.2211,W,0.00,203.86,010410,,,A*70
$GPRMC,161948.000,A,3736.0077,N,12223.2133,W,3.39,153.60,010410,,,A*71
$GPRMC,161953.000,A,3735.9988,N,12223.2122,W,4.45,136.80,010410,,,A*79
$GPRMC,161958.000,A,3735.9865,N,12223.2024,W,11.49,141.95,010410,,,D*4E
$GPRMC,162003.000,A,3735.9704,N,12223.1872,W,15.89,141.26,010410,,,D*4A
$GPRMC,162008.000,A,3735.9509,N,12223.1674,W,18.32,134.98,010410,,,D*4C
$GPRMC,162013.000,A,3735.9263,N,12223.1435,W,23.49,141.46,010410,,,D*4F
$GPRMC,162018.000,A,3735.8978,N,12223.1161,W,26.76,141.61,010410,,,D*4C
$GPRMC,162023.000,A,3735.8664,N,12223.0855,W,29.49,141.31,010410,,,D*4F
$GPRMC,162028.000,A,3735.8330,N,12223.0510,W,31.91,138.67,010410,,,D*4D
$GPRMC,162033.000,A,3735.7993,N,12223.0111,W,34.11,134.21,010410,,,D*4D
$GPRMC,162038.000,A,3735.7667,N,12222.9648,W,36.23,128.85,010410,,,D*41
$GPRMC,162043.000,A,3735.7359,N,12222.9116,W,38.53,123.21,010410,,,D*45
$GPRMC,162048.000,A,3735.7079,N,12222.8514,W,40.65,118.65,010410,,,D*4A
$GPRMC,162053.000,A,3735.6808,N,12222.7866,W,42.55,118.13,010410,,,D*48
$GPRMC,162058.000,A,3735.6525,N,12222.7191,W,44.28,117.90,010410,,,D*48
$GPRMC,162103.000,A,3735.6231,N,12222.6491,W,45.43,117.51,010410,,,D*40
$GPRMC,162108.000,A,3735.5928,N,12222.5765,W,47.30,117.51,010410,,,D*46
$GPRMC,162113.000,A,3735.5620,N,12222.5028,W,47.11,117.40,010410,,,D*46
$GPRMC,162118.000,A,3735.5319,N,12222.4294,W,46.67,117.60,010410,,,D*44
$GPRMC,162123.000,A,3735.5026,N,12222.3578,W,44.62,117.17,010410,,,D*46
$GPRMC,162128.000,A,3735.4748,N,12222.2918,W,41.19,117.99,010410,,,D*47
$GPRMC,162133.000,A,3735.4490,N,12222.2308,W,38.06,117.76,010410,,,D*41
$GPRMC,162138.000,A,3735.4256,N,12222.1746,W,34.90,118.13,010410,,,D*44
$GPRMC,162143.000,A,3735.4039,N,12222.1235,W,31.67,117.74,010410,,,D*41
$GPRMC,162148.000,A,3735.3841,N,12222.0764,W,29.53,118.12,010410,,,D*4B
$GPRMC,162153.000,A,3735.3659,N,12222.0327,W,27.42,117.58,010410,,,D*4A
$GPRMC,162158.000,A,3735.3490,N,12221.9923,W,25.15,117.73,010410,,,D*4B
$GPRMC,162203.000,A,3735.3342,N,12221.9553,W,22.94,117.08,010410,,,D*47
$GPRMC,162208.000,A,3735.3197,N,12221.9223,W,20.74,118.02,010410,,,D*4F
$GPRMC,162213.000,A,3735.3077,N,12221.8922,W,18.01,117.38,010410,,,D*4E
$GPRMC,162218.000,A,3735.2979,N,12221.8680,W,13.41,117.47,010410,,,D*43
$GPRMC,162223.000,A,3735.2907,N,12221.8501,W,10.95,117.93,010410,,,D*4B
$GPRMC,162228.000,A,3735.2840,N,12221.8331,W,11.32,116.41,010410,,,D*45
$GPRMC,162233.000,A,3735.2767,N,12221.8146,W,12.67,115.42,010410,,,D*44
$GPRMC,162238.000,A,3735.2680,N,12221.7931,W,15.20,116.23,010410,,,D*40
$GPRMC,162243.000,A,3735.2567,N,12221.7670,W,18.57,118.24,010410,,,D*48
$GPRMC,162248.000,A,3735.2434,N,12221.7354,W,22.16,117.88,010410,,,D*42
$GPRMC,162253.000,A,3735.2280,N,12221.6984,W,25.49,117.79,010410,,,D*44
$GPRMC,162258.000,A,3735.2104,N,12221.6564,W,28.46,117.77,010410,,,D*4E
$GPRMC,162303.000,A,3735.1907,N,12221.6101,W,31.09,117.48,010410,,,D*41
$GPRMC,162308.000,A,3735.1684,N,12221.5606,W,33.20,117.56,010410,,,D*4B
$GPRMC,162313.000,A,3735.1451,N,12221.5066,W,35.70,117.62,010410,,,D*4F
$GPRMC,162318.000,A,3735.1208,N,12221.4493,W,37.91,117.77,010410,,,D*48
$GPRMC,162323.000,A,3735.0950,N,12221.3884,W,39.79,117.73,010410,,,D*46
$GPRMC,162328.000,A,3735.0681,N,12221.3251,W,41.24,117.22,010410,,,D*4F
$GPRMC,162333.000,A,3735.0403,N,12221.2589,W,43.11,116.84,010410,,,D*47
$GPRMC,162338.000,A,3735.0114,N,12221.1905,W,44.43,117.83,010410,,,D*42
$GPRMC,162343.000,A,3734.9820,N,12221.1202,W,45.64,117.60,010410,,,A*48
$GPRMC,162348.000,A,3734.9521,N,12221.0484,W,46.60,118.15,010410,,,A*4C
$GPRMC,162353.000,A,3734.9219,N,12220.9748,W,47.30,117.94,010410,,,A*43
$GPRMC,162358.000,A,3734.8909,N,12220.9001,W,48.45,117.44,010410,,,A*49
$GPRMC,162403.000,A,3734.8594,N,12220.8247,W,48.85,118.80,010410,,,A*42
$GPRMC,162408.000,A,3734.8272,N,12220.7465,W,50.77,117.60,010410,,,A*4A
$GPRMC,162413.000,A,3734.7941,N,12220.6660,W,52.20,117.70,010410,,,A*43
$GPRMC,162418.000,A,3734.7598,N,12220.5837,W,53.49,117.70,010410,,,A*41
$GPRMC,162423.000,A,3734.7247,N,12220.4996,W,54.91,117.74,010410,,,A*41
$GPRMC,162428.000,A,3734.6886,N,12220.4137,W,56.08,117.87,010410,,,A*41
$GPRMC,162433.000,A,3734.6519,N,12220.3260,W,57.22,117.81,010410,,,A*49
$GPRMC,162438.000,A,3734.6142,N,12220.2365,W,58.37,117.81,010410,,,A*46
$GPRMC,162443.000,A,3734.5758,N,12220.1452,W,59.16,117.67,010410,,,A*4E
$GPRMC,162448.000,A,3734.5368,N,12220.0524,W,60.28,117.70,010410,,,A*42
$GPRMC,162453.000,A,3734.4963,N,12219.9584,W,61.46,119.91,010410,,,A*49
$GPRMC,162458.000,A,3734.4495,N,12219.8676,W,62.57,124.47,010410,,,A*4F
$GPRMC,162503.000,A,3734.3955,N,12219.7812,W,63.15,130.28,010410,,,A*4E
$GPRMC,162508.000,A,3734.3348,N,12219.7005,W,63.79,135.72,010410,,,A*4D
$GPRMC,162513.000,A,3734.2678,N,12219.6257,W,64.65,139.02,010410,,,A*45
$GPRMC,162518.000,A,3734.1988,N,12219.5517,W,65.37,138.91,010410,,,A*40
$GPRMC,162523.000,A,3734.1288,N,12219.4777,W,65.86,139.89,010410,,,A*44
$GPRMC,162528.000,A,3734.0587,N,12219.4021,W,66.58,138.88,010410,,,A*42
$GPRMC,162533.000,A,3733.9877,N,12219.3257,W,67.21,138.68,010410,,,A*41
$GPRMC,162538.000,A,3733.9165,N,12219.2479,W,67.71,138.87,010410,,,A*4F
$GPRMC,162543.000,A,3733.8448,N,12219.1697,W,68.37,138.89,010410,,,D*4F
$GPRMC,162548.000,A,3733.7724,N,12219.0910,W,69.04,138.87,010410,,,D*4C
$GPRMC,162553.000,A,3733.6992,N,12219.0115,W,69.64,138.91,010410,,,D*48
$GPRMC,162558.000,A,3733.6257,N,12218.9320,W,69.64,139.01,010410,,,D*45
$GPRMC,162603.000,A,3733.5522,N,12218.8523,W,69.75,139.03,010410,,,D*48
$GPRMC,162608.000,A,3733.4787,N,12218.7726,W,69.66,139.29,010410,,,D*4D
$GPRMC,162613.000,A,3733.4026,N,12218.6977,W,69.30,145.34,010410,,,D*44
$GPRMC,162618.000,A,3733.3185,N,12218.6390,W,68.94,154.85,010410,,,D*46
$GPRMC,162623.000,A,3733.2294,N,12218.5944,W,68.66,159.38,010410,,,D*4A
$GPRMC,162628.000,A,3733.1405,N,12218.5532,W,68.08,159.23,010410,,,D*43
$GPRMC,162633.000,A,3733.0538,N,12218.5074,W,67.71,154.23,010410,,,D*4C
$GPRMC,162638.000,A,3732.9713,N,12218.4507,W,67.40,148.46,010410,,,D*48
$GPRMC,162643.000,A,3732.8931,N,12218.3858,W,67.33,145.90,010410,,,D*49
$GPRMC,162648.000,A,3732.8154,N,12218.3198,W,67.25,145.96,010410,,,D*4D
$GPRMC,162653.000,A,3732.7380,N,12218.2542,W,67.01,146.13,010410,,,D*49
$GPRMC,162658.000,A,3732.6609,N,12218.1888,W,66.65,146.00,010410,,,D*4E
$GPRMC,162703.000,A,3732.5844,N,12218.1239,W,66.21,145.90,010410,,,D*4F
$GPRMC,162708.000,A,3732.5083,N,12218.0592,W,66.07,145.96,010410,,,D*42
$GPRMC,162713.000,A,3732.4320,N,12217.9945,W,66.24,146.04,010410,,,D*4A
$GPRMC,162718.000,A,3732.3570,N,12217.9274,W,66.15,143.70,010410,,,D*48
$GPRMC,162723.000,A,3732.2828,N,12217.8592,W,66.15,143.75,010410,,,D*4A
$GPRMC,162728.000,A,3732.2089,N,12217.7908,W,66.35,144.00,010410,,,D*45
$GPRMC,162733.000,A,3732.1343,N,12217.7210,W,67.69,142.03,010410,,,D*46
$GPRMC,162738.000,A,3732.0625,N,12217.6428,W,68.45,136.06,010410,,,D*42
$GPRMC,162743.000,A,3731.9950,N,12217.5564,W,69.33,133.55,010410,,,D*40
$GPRMC,162748.000,A,3731.9288,N,12217.4681,W,69.01,132.59,010410,,,D*40
$GPRMC,162753.000,A,3731.8660,N,12217.3770,W,68.40,130.10,010410,,,D*4A
$GPRMC,162758.000,A,3731.8049,N,12217.2857,W,67.84,130.24,010410,,,D*47
$GPRMC,162803.000,A,3731.7440,N,12217.1951,W,67.49,130.25,010410,,,D*40
$GPRMC,162808.000,A,3731.6838,N,12217.1050,W,66.90,130.00,010410,,,D*43
$GPRMC,162813.000,A,3731.6243,N,12217.0158,W,66.21,129.97,010410,,,D*4B
$GPRMC,162818.000,A,3731.5637,N,12216.9287,W,65.98,133.50,010410,,,D*4C
$GPRMC,162823.000,A,3731.4982,N,12216.8478,W,66.05,136.25,010410,,,D*43
$GPRMC,162828.000,A,3731.4315,N,12216.7681,W,66.19,136.26,010410,,,D*49
$GPRMC,162833.000,A,3731.3636,N,12216.6898,W,66.55,138.21,010410,,,D*46
$GPRMC,162838.000,A,3731.2951,N,12216.6109,W,66.97,136.14,010410,,,D*45
$GPRMC,162843.000,A,3731.2274,N,12216.5297,W,67.53,136.03,010410,,,D*4D
$GPRMC,162848.000,A,3731.1600,N,12216.4467,W,68.11,134.16,010410,,,D*45
$GPRMC,162853.000,A,3731.0928,N,12216.3629,W,68.07,136.19,010410,,,D*4E
$GPRMC,162858.000,A,3731.0256,N,12216.2796,W,67.68,133.70,010410,,,D*4F
$GPRMC,162903.000,A,3730.9621,N,12216.1927,W,67.56,132.22,010410,,,D*40
$GPRMC,162908.000,A,3730.8986,N,12216.1056,W,67.81,133.65,010410,,,D*4F
$GPRMC,162913.000,A,3730.8314,N,12216.0222,W,68.17,136.98,010410,,,D*43
$GPRMC,162918.000,A,3730.7617,N,12215.9413,W,68.21,137.24,010410,,,D*4C
$GPRMC,162923.000,A,3730.6920,N,12215.8607,W,67.99,138.01,010410,,,D*4C
$GPRMC,162928.000,A,3730.6217,N,12215.7816,W,67.52,137.10,010410,,,D*41
$GPRMC,162933.000,A,3730.5533,N,12215.7018,W,66.93,137.60,010410,,,D*44
$GPRMC,162938.000,A,3730.4847,N,12215.6232,W,66.64,137.56,010410,,,D*46
$GPRMC,162943.000,A,3730.4166,N,12215.5450,W,66.44,137.60,010410,,,D*46
$GPRMC,162948.000,A,3730.3483,N,12215.4666,W,66.67,137.56,010410,,,D*46
$GPRMC,162953.000,A,3730.2793,N,12215.3883,W,67.16,137.64,010410,,,D*4B
$GPRMC,162958.000,A,3730.2099,N,12215.3090,W,67.81,137.50,010410,,,D*4E
$GPRMC,163003.000,A,3730.1400,N,12215.2287,W,68.39,137.51,010410,,,D*47
$GPRMC,163008.000,A,3730.0695,N,12215.1480,W,68.55,137.55,010410,,,D*4F
$GPRMC,163013.000,A,3729.9992,N,12215.0675,W,68.18,137.62,010410,,,D*48
$GPRMC,163018.000,A,3729.9293,N,12214.9875,W,68.07,137.62,010410,,,D*41
$GPRMC,163023.000,A,3729.8592,N,12214.9073,W,68.49,137.58,010410,,,D*43
$GPRMC,163028.000,A,3729.7885,N,12214.8265,W,68.86,137.63,010410,,,D*43
$GPRMC,163033.000,A,3729.7175,N,12214.7454,W,69.02,137.60,010410,,,D*4A
$GPRMC,163038.000,A,3729.6473,N,12214.6635,W,68.69,135.82,010410,,,D*45
$GPRMC,163043.000,A,3729.5814,N,12214.5778,W,67.65,132.13,010410,,,D*40
$GPRMC,163048.000,A,3729.5219,N,12214.4898,W,64.47,128.80,010410,,,D*4E
$GPRMC,163053.000,A,3729.4688,N,12214.4051,W,58.91,128.25,010410,,,D*4F
$GPRMC,163058.000,A,3729.4208,N,12214.3282,W,53.43,128.07,010410,,,D*47
$GPRMC,163103.000,A,3729.3773,N,12214.2583,W,48.95,128.29,010410,,,D*4C
$GPRMC,163108.000,A,3729.3375,N,12214.1944,W,44.73,128.16,010410,,,D*49
$GPRMC,163113.000,A,3729.3011,N,12214.1364,W,40.40,128.45,010410,,,D*48
$GPRMC,163118.000,A,3729.2685,N,12214.0843,W,36.20,127.93,010410,,,D*45
$GPRMC,163123.000,A,3729.2397,N,12214.0381,W,31.92,127.90,010410,,,D*43
$GPRMC,163128.000,A,3729.2146,N,12213.9979,W,27.31,128.17,010410,,,D*4B
$GPRMC,163133.000,A,3729.1936,N,12213.9641,W,22.69,127.93,010410,,,D*42
$GPRMC,163138.000,A,3729.1763,N,12213.9366,W,18.51,127.25,010410,,,D*48
$GPRMC,163143.000,A,3729.1621,N,12213.9139,W,14.99,127.85,010410,,,D*49
$GPRMC,163148.000,A,3729.1520,N,12213.8979,W,8.58,127.74,010410,,,D*73
$GPRMC,163153.000,A,3729.1480,N,12213.8916,W,1.98,125.95,010410,,,D*73
$GPRMC,163158.000,A,3729.1477,N,12213.8922,W,0.05,85.04,010410,,,D*41
$GPRMC,163203.000,A,3729.1474,N,12213.8933,W,0.03,170.68,010410,,,D*78
$GPRMC,163208.000,A,3729.1472,N,12213.8942,W,0.02,356.89,010410,,,D*7B
$GPRMC,163213.000,A,3729.1473,N,12213.8943,W,0.17,154.91,010410,,,D*7C
$GPRMC,163218.000,A,3729.1475,N,12213.8943,W,0.13,17.32,010410,,,D*4A
$GPRMC,163223.000,A,3729.1476,N,12213.8943,W,0.03,164.80,010410,,,D*7C
$GPRMC,163228.000,A,3729.1475,N,12213.8944,W,0.04,101.26,010410,,,D*7B
$GPRMC,163233.000,A,3729.1476,N,12213.8946,W,0.11,358.61,010410,,,D*79
$GPRMC,163238.000,A,3729.1473,N,12213.8939,W,1.50,121.77,010410,,,D*70
$GPRMC,163243.000,A,3729.1444,N,12213.8894,W,5.23,127.55,010410,,,D*78
$GPRMC,163248.000,A,3729.1383,N,12213.8797,W,8.79,127.42,010410,,,D*77
$GPRMC,163253.000,A,3729.1283,N,12213.8640,W,13.06,128.87,010410,,,D*43
$GPRMC,163258.000,A,3729.1150,N,12213.8424,W,17.44,127.81,010410,,,D*4E
$GPRMC,163303.000,A,3729.0979,N,12213.8152,W,21.24,128.00,010410,,,D*42
$GPRMC,163308.000,A,3729.0774,N,12213.7832,W,24.61,128.68,010410,,,D*40
$GPRMC,163313.000,A,3729.0544,N,12213.7461,W,27.94,128.42,010410,,,D*40
$GPRMC,163318.000,A,3729.0289,N,12213.7054,W,30.60,127.66,010410,,,D*4B
$GPRMC,163323.000,A,3729.0015,N,12213.6613,W,32.77,128.09,010410,,,D*42
$GPRMC,163328.000,A,3728.9721,N,12213.6143,W,35.21,127.95,010410,,,D*4D
$GPRMC,163333.000,A,3728.9406,N,12213.5636,W,37.68,128.43,010410,,,D*4C
$GPRMC,163338.000,A,3728.9071,N,12213.5102,W,39.67,128.09,010410,,,D*4C
$GPRMC,163343.000,A,3728.8721,N,12213.4546,W,41.30,128.18,010410,,,D*4B
$GPRMC,163348.000,A,3728.8356,N,12213.3966,W,42.95,128.09,010410,,,D*41
$GPRMC,163353.000,A,3728.7978,N,12213.3365,W,44.30,128.15,010410,,,D*4F
$GPRMC,163358.000,A,3728.7589,N,12213.2746,W,45.74,128.30,010410,,,D*44
$GPRMC,163403.000,A,3728.7193,N,12213.2111,W,46.46,128.19,010410,,,D*4F
$GPRMC,163408.000,A,3728.6787,N,12213.1460,W,48.19,128.02,010410,,,D*48
$GPRMC,163413.000,A,3728.6367,N,12213.0790,W,49.15,128.04,010410,,,D*4E
$GPRMC,163418.000,A,3728.5937,N,12213.0104,W,50.39,128.37,010410,,,D*44
$GPRMC,163423.000,A,3728.5496,N,12212.9404,W,51.45,128.21,010410,,,D*4A
$GPRMC,163428.000,A,3728.5045,N,12212.8689,W,52.64,128.24,010410,,,D*48
$GPRMC,163433.000,A,3728.4583,N,12212.7960,W,53.53,128.62,010410,,,D*4C
$GPRMC,163438.000,A,3728.4114,N,12212.7220,W,54.55,128.46,010410,,,D*45
$GPRMC,163443.000,A,3728.3639,N,12212.6464,W,55.48,128.19,010410,,,D*46
$GPRMC,163448.000,A,3728.3155,N,12212.5700,W,56.12,128.33,010410,,,D*46
$GPRMC,163453.000,A,3728.2665,N,12212.4925,W,57.00,128.34,010410,,,D*44
$GPRMC,163458.000,A,3728.2168,N,12212.4138,W,57.80,128.17,010410,,,D*48
$GPRMC,163503.000,A,3728.1665,N,12212.3341,W,58.54,128.24,010410,,,D*43
$GPRMC,163508.000,A,3728.1155,N,12212.2532,W,59.18,128.29,010410,,,D*4B
$GPRMC,163513.000,A,3728.0639,N,12212.1721,W,59.62,128.28,010410,,,D*42
$GPRMC,163518.000,A,3728.0119,N,12212.0900,W,60.13,128.30,010410,,,D*45
$GPRMC,163523.000,A,3727.9597,N,12212.0070,W,60.62,127.64,010410,,,D*4F
$GPRMC,163528.000,A,3727.9066,N,12211.9236,W,61.36,128.38,010410,,,D*43
$GPRMC,163533.000,A,3727.8533,N,12211.8394,W,61.96,128.35,010410,,,D*42
$GPRMC,163538.000,A,3727.7993,N,12211.7542,W,62.51,128.50,010410,,,D*49
$GPRMC,163543.000,A,3727.7450,N,12211.6684,W,62.96,128.20,010410,,,D*43
$GPRMC,163548.000,A,3727.6906,N,12211.5818,W,62.69,128.09,010410,,,D*44
$GPRMC,163553.000,A,3727.6371,N,12211.4973,W,60.51,128.60,010410,,,D*4F
$GPRMC,163558.000,A,3727.5873,N,12211.4181,W,55.34,127.16,010410,,,D*40
$GPRMC,163603.000,A,3727.5422,N,12211.3465,W,49.85,128.61,010410,,,D*45
$GPRMC,163608.000,A,3727.5011,N,12211.2819,W,45.53,128.63,010410,,,D*49
$GPRMC,163613.000,A,3727.4640,N,12211.2226,W,41.68,128.06,010410,,,D*49
$GPRMC,163618.000,A,3727.4302,N,12211.1686,W,38.12,128.23,010410,,,D*48
$GPRMC,163623.000,A,3727.3989,N,12211.1188,W,35.26,127.81,010410,,,D*4A
$GPRMC,163628.000,A,3727.3701,N,12211.0732,W,31.95,128.74,010410,,,D*40
$GPRMC,163633.000,A,3727.3449,N,12211.0331,W,26.66,127.35,010410,,,D*42
$GPRMC,163638.000,A,3727.3248,N,12211.0006,W,21.25,127.83,010410,,,D*44
$GPRMC,163643.000,A,3727.3091,N,12210.9758,W,15.94,128.22,010410,,,D*43
$GPRMC,163648.000,A,3727.2974,N,12210.9579,W,11.43,129.39,010410,,,D*4F
$GPRMC,163653.000,A,3727.2900,N,12210.9461,W,6.70,128.08,010410,,,D*7B
$GPRMC,163658.000,A,3727.2879,N,12210.9423,W,0.17,1.10,010410,,,D*7D
$GPRMC,163703.000,A,3727.2883,N,12210.9429,W,0.26,25.13,010410,,,D*4A
$GPRMC,163708.000,A,3727.2885,N,12210.9432,W,0.18,34.79,010410,,,D*4C
$GPRMC,163713.000,A,3727.2887,N,12210.9434,W,0.13,26.54,010410,,,D*45
$GPRMC,163718.000,A,3727.2888,N,12210.9436,W,0.07,233.76,010410,,,D*70
$GPRMC,163723.000,A,3727.2890,N,12210.9437,W,0.07,355.09,010410,,,D*79
$GPRMC,163728.000,A,3727.2890,N,12210.9438,W,0.13,38.75,010410,,,D*4B
$GPRMC,163733.000,A,3727.2890,N,12210.9439,W,0.05,79.96,010410,,,D*4F
$GPRMC,163738.000,A,3727.2891,N,12210.9439,W,0.32,48.22,010410,,,D*4C
$GPRMC,163743.000,A,3727.2891,N,12210.9440,W,0.19,42.64,010410,,,D*4F
$GPRMC,163748.000,A,3727.2892,N,12210.9439,W,0.10,21.57,010410,,,D*45
$GPRMC,163753.000,A,3727.2892,N,12210.9440,W,0.12,43.06,010410,,,D*43
$GPRMC,163758.000,A,3727.2892,N,12210.9441,W,0.06,19.89,010410,,,D*44
$GPRMC,163803.000,A,3727.2892,N,12210.9441,W,0.34,112.51,010410,,,D*7B
$GPRMC,163808.000,A,3727.2880,N,12210.9418,W,3.08,126.22,010410,,,D*70
$GPRMC,163813.000,A,3727.2834,N,12210.9348,W,6.96,128.26,010410,,,D*7F
$GPRMC,163818.000,A,3727.2758,N,12210.9222,W,10.68,127.46,010410,,,D*43
$GPRMC,163823.000,A,3727.2640,N,12210.9042,W,15.09,127.79,010410,,,D*49
$GPRMC,163828.000,A,3727.2485,N,12210.8800,W,19.47,128.64,010410,,,D*43
$GPRMC,163833.000,A,3727.2296,N,12210.8504,W,22.96,128.11,010410,,,D*42
$GPRMC,163838.000,A,3727.2079,N,12210.8163,W,26.35,128.38,010410,,,D*49
$GPRMC,163843.000,A,3727.1834,N,12210.7778,W,29.37,128.76,010410,,,D*43
$GPRMC,163848.000,A,3727.1565,N,12210.7355,W,32.01,128.60,010410,,,D*42
$GPRMC,163853.000,A,3727.1274,N,12210.6897,W,34.49,128.32,010410,,,D*46
$GPRMC,163858.000,A,3727.0964,N,12210.6408,W,36.64,128.20,010410,,,D*42
$GPRMC,163903.000,A,3727.0635,N,12210.5890,W,38.68,128.09,010410,,,D*41
$GPRMC,163908.000,A,3727.0290,N,12210.5344,W,40.66,128.63,010410,,,D*4E
$GPRMC,163913.000,A,3726.9928,N,12210.4776,W,42.19,128.37,010410,,,D*4B
$GPRMC,163918.000,A,3726.9552,N,12210.4182,W,43.90,128.25,010410,,,D*4F
$GPRMC,163923.000,A,3726.9164,N,12210.3571,W,45.12,128.29,010410,,,D*49
$GPRMC,163928.000,A,3726.8768,N,12210.2945,W,46.44,128.32,010410,,,D*49
$GPRMC,163933.000,A,3726.8357,N,12210.2303,W,47.63,128.58,010410,,,D*4B
$GPRMC,163938.000,A,3726.7932,N,12210.1640,W,49.53,129.02,010410,,,D*44
$GPRMC,163943.000,A,3726.7464,N,12210.0982,W,51.18,132.64,010410,,,D*4A
$GPRMC,163948.000,A,3726.6968,N,12210.0314,W,53.22,132.70,010410,,,D*4A
$GPRMC,163953.000,A,3726.6477,N,12209.9596,W,54.84,128.04,010410,,,D*4D
$GPRMC,163958.000,A,3726.5998,N,12209.8836,W,55.97,128.21,010410,,,D*4B
$GPRMC,164003.000,A,3726.5508,N,12209.8059,W,57.27,128.37,010410,,,D*41
$GPRMC,164008.000,A,3726.5015,N,12209.7254,W,58.89,125.68,010410,,,D*4F
$GPRMC,164013.000,A,3726.4540,N,12209.6398,W,60.73,124.16,010410,,,D*47
$GPRMC,164018.000,A,3726.4056,N,12209.5512,W,62.24,125.74,010410,,,D*4C
$GPRMC,164023.000,A,3726.3522,N,12209.4638,W,63.68,128.14,010410,,,D*4D
$GPRMC,164028.000,A,3726.2967,N,12209.3754,W,64.93,128.11,010410,,,D*40
$GPRMC,164033.000,A,3726.2401,N,12209.2859,W,65.83,128.34,010410,,,D*43
$GPRMC,164038.000,A,3726.1831,N,12209.1950,W,66.39,127.73,010410,,,D*41
$GPRMC,164043.000,A,3726.1253,N,12209.1031,W,67.22,128.13,010410,,,D*4F
$GPRMC,164048.000,A,3726.0670,N,12209.0102,W,68.02,128.06,010410,,,D*49
$GPRMC,164053.000,A,3726.0077,N,12208.9161,W,69.27,128.73,010410,,,D*4B
$GPRMC,164058.000,A,3725.9484,N,12208.8210,W,69.13,128.02,010410,,,D*47
$GPRMC,164103.000,A,3725.8886,N,12208.7262,W,69.11,128.06,010410,,,D*4B
$GPRMC,164108.000,A,3725.8288,N,12208.6313,W,69.10,128.17,010410,,,D*43
$GPRMC,164113.000,A,3725.7690,N,12208.5367,W,69.05,128.13,010410,,,D*4B
$GPRMC,164118.000,A,3725.7095,N,12208.4423,W,68.80,128.24,010410,,,D*4D
$GPRMC,164123.000,A,3725.6502,N,12208.3484,W,68.42,128.15,010410,,,D*49
$GPRMC,164128.000,A,3725.5905,N,12208.2560,W,68.05,129.51,010410,,,D*42
$GPRMC,164133.000,A,3725.5310,N,12208.1642,W,67.59,128.17,010410,,,D*43
$GPRMC,164138.000,A,3725.4729,N,12208.0720,W,67.14,128.12,010410,,,D*4F
$GPRMC,164143.000,A,3725.4151,N,12207.9806,W,66.75,128.52,010410,,,D*45
$GPRMC,164148.000,A,3725.3574,N,12207.8897,W,66.47,128.41,010410,,,D*40
$GPRMC,164153.000,A,3725.3000,N,12207.7990,W,66.34,128.31,010410,,,D*46
$GPRMC,164158.000,A,3725.2431,N,12207.7083,W,66.13,127.88,010410,,,D*49
$GPRMC,164203.000,A,3725.1869,N,12207.6167,W,66.05,127.11,010410,,,D*4B
$GPRMC,164208.000,A,3725.1298,N,12207.5253,W,66.78,128.38,010410,,,D*4D
$GPRMC,164213.000,A,3725.0716,N,12207.4338,W,67.39,128.47,010410,,,D*44
$GPRMC,164218.000,A,3725.0132,N,12207.3416,W,67.62,128.55,010410,,,D*4E
$GPRMC,164223.000,A,3724.9549,N,12207.2488,W,67.66,128.03,010410,,,D*47
$GPRMC,164228.000,A,3724.8963,N,12207.1561,W,67.80,128.44,010410,,,D*47
$GPRMC,164233.000,A,3724.8378,N,12207.0641,W,67.09,128.11,010410,,,D*4C
$GPRMC,164238.000,A,3724.7805,N,12206.9731,W,66.06,128.10,010410,,,D*48
$GPRMC,164243.000,A,3724.7243,N,12206.8829,W,65.60,128.36,010410,,,D*4C
$GPRMC,164248.000,A,3724.6687,N,12206.7935,W,65.00,128.22,010410,,,D*4A
$GPRMC,164253.000,A,3724.6129,N,12206.7040,W,64.56,128.07,010410,,,D*4D
$GPRMC,164258.000,A,3724.5581,N,12206.6165,W,62.85,128.32,010410,,,D*4A
$GPRMC,164303.000,A,3724.5040,N,12206.5321,W,61.28,128.24,010410,,,D*4F
$GPRMC,164308.000,A,3724.4515,N,12206.4495,W,59.82,128.42,010410,,,D*42
$GPRMC,164313.000,A,3724.4009,N,12206.3693,W,57.84,127.65,010410,,,D*41
$GPRMC,164318.000,A,3724.3553,N,12206.2891,W,55.09,122.89,010410,,,D*4A
$GPRMC,164323.000,A,3724.3190,N,12206.2113,W,49.04,117.95,010410,,,D*41
$GPRMC,164328.000,A,3724.2904,N,12206.1398,W,43.19,116.15,010410,,,D*43
$GPRMC,164333.000,A,3724.2655,N,12206.0770,W,37.51,116.38,010410,,,D*41
$GPRMC,164338.000,A,3724.2443,N,12206.0231,W,32.64,116.20,010410,,,D*45
$GPRMC,164343.000,A,3724.2247,N,12205.9738,W,31.56,116.85,010410,,,D*40
$GPRMC,164348.000,A,3724.2059,N,12205.9255,W,30.90,116.49,010410,,,D*43
$GPRMC,164353.000,A,3724.1871,N,12205.8779,W,30.42,116.28,010410,,,D*4A
$GPRMC,164358.000,A,3724.1688,N,12205.8310,W,29.42,115.52,010410,,,D*44
$GPRMC,164403.000,A,3724.1509,N,12205.7855,W,29.18,115.85,010410,,,D*47
$GPRMC,164408.000,A,3724.1331,N,12205.7405,W,28.50,116.59,010410,,,D*47
$GPRMC,164413.000,A,3724.1162,N,12205.6964,W,28.02,116.24,010410,,,D*4F
$GPRMC,164418.000,A,3724.0988,N,12205.6522,W,28.02,115.39,010410,,,D*48
$GPRMC,164423.000,A,3724.0812,N,12205.6083,W,28.29,115.91,010410,,,D*47
$GPRMC,164428.000,A,3724.0637,N,12205.5637,W,28.42,115.69,010410,,,D*45
$GPRMC,164433.000,A,3724.0456,N,12205.5191,W,28.62,117.36,010410,,,D*4B
$GPRMC,164438.000,A,3724.0272,N,12205.4739,W,29.12,115.91,010410,,,D*4C
$GPRMC,164443.000,A,3724.0085,N,12205.4285,W,28.82,115.37,010410,,,D*4C
$GPRMC,164448.000,A,3723.9903,N,12205.3822,W,29.68,115.77,010410,,,D*4F
$GPRMC,164453.000,A,3723.9716,N,12205.3355,W,30.00,116.29,010410,,,D*4A
$GPRMC,164458.000,A,3723.9527,N,12205.2888,W,30.29,116.19,010410,,,D*43
$GPRMC,164503.000,A,3723.9333,N,12205.2414,W,30.88,116.36,010410,,,D*40
$GPRMC,164508.000,A,3723.9139,N,12205.1921,W,32.22,116.25,010410,,,D*4B
$GPRMC,164513.000,A,3723.8931,N,12205.1404,W,33.62,116.06,010410,,,D*4E
$GPRMC,164518.000,A,3723.8713,N,12205.0857,W,36.01,116.43,010410,,,D*41
$GPRMC,164523.000,A,3723.8486,N,12205.0275,W,38.06,115.91,010410,,,D*49
$GPRMC,164528.000,A,3723.8246,N,12204.9665,W,39.70,116.14,010410,,,D*4B
$GPRMC,164533.000,A,3723.7995,N,12204.9049,W,39.38,116.58,010410,,,D*47
$GPRMC,164538.000,A,3723.7751,N,12204.8434,W,39.01,116.57,010410,,,D*40
$GPRMC,164543.000,A,3723.7521,N,12204.7837,W,36.64,116.74,010410,,,D*44
$GPRMC,164548.000,A,3723.7307,N,12204.7286,W,33.45,116.26,010410,,,D*4C
$GPRMC,164553.000,A,3723.7113,N,12204.6793,W,29.85,115.70,010410,,,D*46
$GPRMC,164558.000,A,3723.6943,N,12204.6359,W,25.98,116.43,010410,,,D*40
$GPRMC,164603.000,A,3723.6801,N,12204.5995,W,20.82,116.05,010410,,,D*4F
$GPRMC,164608.000,A,3723.6690,N,12204.5713,W,15.71,115.64,010410,,,D*4C
$GPRMC,164613.000,A,3723.6607,N,12204.5510,W,11.18,116.45,010410,,,D*42
$GPRMC,164618.000,A,3723.6556,N,12204.5380,W,5.75,115.98,010410,,,D*7C
$GPRMC,164623.000,A,3723.6547,N,12204.5352,W,0.24,31.66,010410,,,D*4C
$GPRMC,164628.000,A,3723.6551,N,12204.5356,W,0.09,346.43,010410,,,D*7F
$GPRMC,164633.000,A,3723.6552,N,12204.5362,W,0.04,209.80,010410,,,D*79
$GPRMC,164638.000,A,3723.6555,N,12204.5365,W,0.12,10.79,010410,,,D*49
$GPRMC,164643.000,A,3723.6557,N,12204.5367,W,0.03,67.25,010410,,,D*4C
$GPRMC,164648.000,A,3723.6558,N,12204.5370,W,0.10,351.22,010410,,,D*7D
$GPRMC,164653.000,A,3723.6560,N,12204.5372,W,0.12,33.25,010410,,,D*4C
$GPRMC,164658.000,A,3723.6560,N,12204.5374,W,0.03,357.18,010410,,,D*7E
$GPRMC,164703.000,A,3723.6561,N,12204.5375,W,0.13,355.49,010410,,,D*76
$GPRMC,164708.000,A,3723.6560,N,12204.5377,W,0.03,5.62,010410,,,D*70
$GPRMC,164713.000,A,3723.6560,N,12204.5378,W,0.11,27.87,010410,,,D*4D
$GPRMC,164718.000,A,3723.6560,N,12204.5378,W,0.16,23.89,010410,,,D*4B
$GPRMC,164723.000,A,3723.6561,N,12204.5377,W,0.13,48.90,010410,,,D*4D
$GPRMC,164728.000,A,3723.6561,N,12204.5377,W,0.14,28.16,010410,,,D*49
$GPRMC,164733.000,A,3723.6561,N,12204.5376,W,0.07,58.42,010410,,,D*46
$GPRMC,164738.000,A,3723.6562,N,12204.5375,W,0.10,18.22,010410,,,D*49
$GPRMC,164743.000,A,3723.6563,N,12204.5375,W,0.09,8.22,010410,,,D*7D
$GPRMC,164748.000,A,3723.6564,N,12204.5375,W,0.18,32.41,010410,,,D*4D
$GPRMC,164753.000,A,3723.6566,N,12204.5374,W,0.11,6.79,010410,,,D*71
$GPRMC,164758.000,A,3723.6563,N,12204.5364,W,1.73,114.40,010410,,,D*73
$GPRMC,164803.000,A,3723.6540,N,12204.5306,W,5.64,115.08,010410,,,D*78
$GPRMC,164808.000,A,3723.6492,N,12204.5186,W,9.40,115.72,010410,,,D*70
$GPRMC,164813.000,A,3723.6420,N,12204.5007,W,13.26,116.43,010410,,,D*41
$GPRMC,164818.000,A,3723.6320,N,12204.4768,W,17.09,116.92,010410,,,D*47
$GPRMC,164823.000,A,3723.6197,N,12204.4469,W,20.65,116.40,010410,,,D*42
$GPRMC,164828.000,A,3723.6056,N,12204.4116,W,23.80,116.42,010410,,,D*42
$GPRMC,164833.000,A,3723.5895,N,12204.3719,W,26.41,116.35,010410,,,D*4A
$GPRMC,164838.000,A,3723.5719,N,12204.3279,W,29.01,116.25,010410,,,D*43
$GPRMC,164843.000,A,3723.5533,N,12204.2805,W,31.16,116.69,010410,,,D*42
$GPRMC,164848.000,A,3723.5331,N,12204.2298,W,33.21,116.34,010410,,,D*4D
$GPRMC,164853.000,A,3723.5117,N,12204.1759,W,35.17,116.18,010410,,,D*47
$GPRMC,164858.000,A,3723.4891,N,12204.1195,W,36.43,116.90,010410,,,D*4E
$GPRMC,164903.000,A,3723.4651,N,12204.0617,W,38.69,117.67,010410,,,D*40
$GPRMC,164908.000,A,3723.4393,N,12204.0003,W,40.36,116.49,010410,,,D*4B
$GPRMC,164913.000,A,3723.4136,N,12203.9359,W,41.93,116.45,010410,,,D*4C
$GPRMC,164918.000,A,3723.3870,N,12203.8689,W,43.53,116.73,010410,,,D*49
$GPRMC,164923.000,A,3723.3600,N,12203.7989,W,45.27,115.40,010410,,,D*4E
$GPRMC,164928.000,A,3723.3328,N,12203.7263,W,46.83,113.55,010410,,,D*4A
$GPRMC,164933.000,A,3723.3069,N,12203.6492,W,48.66,112.19,010410,,,D*43
$GPRMC,164938.000,A,3723.2807,N,12203.5696,W,50.04,112.25,010410,,,D*4E
$GPRMC,164943.000,A,3723.2536,N,12203.4874,W,51.41,112.47,010410,,,D*4A
$GPRMC,164948.000,A,3723.2262,N,12203.4034,W,52.90,111.68,010410,,,D*4A
$GPRMC,164953.000,A,3723.1989,N,12203.3160,W,54.23,111.38,010410,,,D*41
$GPRMC,164958.000,A,3723.1702,N,12203.2270,W,55.48,112.47,010410,,,D*43
$GPRMC,165003.000,A,3723.1404,N,12203.1362,W,56.88,112.21,010410,,,D*4E
$GPRMC,165008.000,A,3723.1101,N,12203.0433,W,58.02,112.36,010410,,,D*4D
$GPRMC,165013.000,A,3723.0791,N,12202.9487,W,59.04,112.25,010410,,,D*4B
$GPRMC,165018.000,A,3723.0475,N,12202.8521,W,60.32,112.09,010410,,,D*44
$GPRMC,165023.000,A,3723.0154,N,12202.7538,W,61.33,111.79,010410,,,D*49
$GPRMC,165028.000,A,3722.9826,N,12202.6541,W,62.40,112.33,010410,,,D*43
$GPRMC,165033.000,A,3722.9499,N,12202.5523,W,63.11,112.25,010410,,,D*44
$GPRMC,165038.000,A,3722.9160,N,12202.4497,W,63.98,112.39,010410,,,D*4F
$GPRMC,165043.000,A,3722.8819,N,12202.3457,W,64.94,112.25,010410,,,D*48
$GPRMC,165048.000,A,3722.8472,N,12202.2407,W,65.43,112.27,010410,,,D*4F
$GPRMC,165053.000,A,3722.8114,N,12202.1346,W,66.32,112.71,010410,,,D*47
$GPRMC,165058.000,A,3722.7758,N,12202.0270,W,66.85,112.42,010410,,,D*44
$GPRMC,165103.000,A,3722.7391,N,12201.9182,W,68.15,112.78,010410,,,D*40
$GPRMC,165108.000,A,3722.7029,N,12201.8082,W,68.25,112.14,010410,,,D*42
$GPRMC,165113.000,A,3722.6664,N,12201.6978,W,68.36,112.32,010410,,,D*42
$GPRMC,165118.000,A,3722.6302,N,12201.5877,W,68.24,111.93,010410,,,D*4A
$GPRMC,165123.000,A,3722.5942,N,12201.4772,W,68.54,111.54,010410,,,D*48
$GPRMC,165128.000,A,3722.5592,N,12201.3656,W,68.97,112.37,010410,,,D*4B
$GPRMC,165133.000,A,3722.5228,N,12201.2539,W,69.05,112.04,010410,,,D*46
$GPRMC,165138.000,A,3722.4858,N,12201.1419,W,69.41,112.21,010410,,,D*46
$GPRMC,165143.000,A,3722.4501,N,12201.0290,W,69.82,109.82,010410,,,D*41
$GPRMC,165148.000,A,3722.4219,N,12200.9126,W,69.57,104.36,010410,,,D*48
$GPRMC,165153.000,A,3722.3982,N,12200.7957,W,69.55,104.37,010410,,,D*4F
$GPRMC,165158.000,A,3722.3739,N,12200.6786,W,69.39,104.30,010410,,,D*44
$GPRMC,165203.000,A,3722.3500,N,12200.5617,W,69.18,104.22,010410,,,D*4B
$GPRMC,165208.000,A,3722.3262,N,12200.4451,W,68.77,104.22,010410,,,D*4A
$GPRMC,165213.000,A,3722.3022,N,12200.3290,W,68.62,104.25,010410,,,D*49
$GPRMC,165218.000,A,3722.2784,N,12200.2135,W,68.37,104.33,010410,,,D*42
$GPRMC,165223.000,A,3722.2550,N,12200.0982,W,68.23,103.70,010410,,,D*42
$GPRMC,165228.000,A,3722.2376,N,12159.9811,W,68.31,97.03,010410,,,D*7D
$GPRMC,165233.000,A,3722.2305,N,12159.8622,W,68.44,93.00,010410,,,D*79
$GPRMC,165238.000,A,3722.2255,N,12159.7432,W,68.50,93.05,010410,,,D*7A
$GPRMC,165243.000,A,3722.2204,N,12159.6235,W,68.56,92.21,010410,,,D*73
$GPRMC,165248.000,A,3722.2201,N,12159.5036,W,68.68,89.46,010410,,,D*79
$GPRMC,165253.000,A,3722.2218,N,12159.3840,W,68.68,88.59,010410,,,D*7B
$GPRMC,165258.000,A,3722.2232,N,12159.2642,W,68.66,89.51,010410,,,D*72
$GPRMC,165303.000,A,3722.2243,N,12159.1445,W,68.33,89.40,010410,,,D*7D
$GPRMC,165308.000,A,3722.2252,N,12159.0253,W,68.35,89.50,010410,,,D*71
$GPRMC,165313.000,A,3722.2261,N,12158.9064,W,68.12,89.40,010410,,,D*71
$GPRMC,165318.000,A,3722.2267,N,12158.7876,W,67.82,90.36,010410,,,D*76
$GPRMC,165323.000,A,3722.2218,N,12158.6699,W,67.78,95.87,010410,,,D*72
$GPRMC,165328.000,A,3722.2061,N,12158.5538,W,67.67,102.93,010410,,,D*4A
$GPRMC,165333.000,A,3722.1788,N,12158.4409,W,67.72,109.73,010410,,,D*40
$GPRMC,165338.000,A,3722.1411,N,12158.3328,W,67.91,116.30,010410,,,D*4F
$GPRMC,165343.000,A,3722.0957,N,12158.2280,W,68.48,118.60,010410,,,D*4F
$GPRMC,165348.000,A,3722.0496,N,12158.1230,W,68.90,118.34,010410,,,D*48
$GPRMC,165353.000,A,3722.0036,N,12158.0175,W,69.06,118.40,010410,,,D*42
$GPRMC,165358.000,A,3721.9576,N,12157.9120,W,69.31,117.87,010410,,,D*44
$GPRMC,165403.000,A,3721.9118,N,12157.8067,W,68.63,118.58,010410,,,D*49
$GPRMC,165408.000,A,3721.8661,N,12157.7018,W,68.54,118.42,010410,,,D*42
$GPRMC,165413.000,A,3721.8208,N,12157.5973,W,68.15,118.61,010410,,,D*41
$GPRMC,165418.000,A,3721.7754,N,12157.4932,W,67.99,118.24,010410,,,D*47
$GPRMC,165423.000,A,3721.7300,N,12157.3898,W,67.66,118.74,010410,,,D*49
$GPRMC,165428.000,A,3721.6850,N,12157.2867,W,67.45,118.39,010410,,,D*44
$GPRMC,165433.000,A,3721.6402,N,12157.1836,W,67.35,118.49,010410,,,D*42
$GPRMC,165438.000,A,3721.5953,N,12157.0808,W,67.24,118.50,010410,,,D*47
$GPRMC,165443.000,A,3721.5503,N,12156.9785,W,66.87,118.76,010410,,,D*4C
$GPRMC,165448.000,A,3721.5057,N,12156.8763,W,66.83,118.51,010410,,,D*4B
$GPRMC,165453.000,A,3721.4613,N,12156.7739,W,66.75,118.60,010410,,,D*4D
$GPRMC,165458.000,A,3721.4171,N,12156.6717,W,66.76,118.29,010410,,,D*46
$GPRMC,165503.000,A,3721.3728,N,12156.5697,W,66.61,118.40,010410,,,D*47
$GPRMC,165508.000,A,3721.3284,N,12156.4680,W,66.45,118.69,010410,,,D*45
$GPRMC,165513.000,A,3721.2846,N,12156.3661,W,66.68,118.34,010410,,,D*45
$GPRMC,165518.000,A,3721.2397,N,12156.2640,W,67.04,119.89,010410,,,D*47
$GPRMC,165523.000,A,3721.1911,N,12156.1637,W,67.72,122.13,010410,,,D*41
$GPRMC,165528.000,A,3721.1405,N,12156.0638,W,68.05,122.32,010410,,,D*40
$GPRMC,165533.000,A,3721.0895,N,12155.9634,W,68.48,122.13,010410,,,D*42
$GPRMC,165538.000,A,3721.0384,N,12155.8630,W,68.46,122.27,010410,,,D*4E
$GPRMC,165543.000,A,3720.9872,N,12155.7629,W,68.39,122.34,010410,,,D*45
$GPRMC,165548.000,A,3720.9360,N,12155.6632,W,68.38,122.21,010410,,,D*48
$GPRMC,165553.000,A,3720.8850,N,12155.5631,W,68.30,122.13,010410,,,D*42
$GPRMC,165558.000,A,3720.8343,N,12155.4627,W,68.04,122.31,010410,,,D*41
$GPRMC,165603.000,A,3720.7838,N,12155.3627,W,67.40,122.40,010410,,,D*4A
$GPRMC,165608.000,A,3720.7349,N,12155.2654,W,63.10,122.21,010410,,,D*4F
$GPRMC,165613.000,A,3720.6900,N,12155.1762,W,57.82,121.94,010410,,,D*45
$GPRMC,165618.000,A,3720.6498,N,12155.0954,W,52.35,122.15,010410,,,D*4B
$GPRMC,165623.000,A,3720.6140,N,12155.0255,W,45.78,122.30,010410,,,D*41
$GPRMC,165628.000,A,3720.5824,N,12154.9637,W,38.76,122.73,010410,,,D*49
$GPRMC,165633.000,A,3720.5561,N,12154.9124,W,32.96,122.07,010410,,,D*4D
$GPRMC,165638.000,A,3720.5325,N,12154.8661,W,31.78,122.08,010410,,,D*4B
$GPRMC,165643.000,A,3720.5095,N,12154.8197,W,31.37,122.29,010410,,,D*49
$GPRMC,165648.000,A,3720.4866,N,12154.7730,W,31.49,119.79,010410,,,D*47
$GPRMC,165653.000,A,3720.4683,N,12154.7221,W,32.24,110.36,010410,,,D*47
$GPRMC,165658.000,A,3720.4517,N,12154.6690,W,32.95,114.22,010410,,,D*46
$GPRMC,165703.000,A,3720.4289,N,12154.6195,W,32.71,125.26,010410,,,D*47
$GPRMC,165708.000,A,3720.3991,N,12154.5784,W,32.10,136.19,010410,,,D*45
$GPRMC,165713.000,A,3720.3643,N,12154.5440,W,31.88,139.77,010410,,,D*41
$GPRMC,165718.000,A,3720.3280,N,12154.5121,W,31.45,150.42,010410,,,D*4B
$GPRMC,165723.000,A,3720.2880,N,12154.4902,W,31.38,158.29,010410,,,D*4F
$GPRMC,165728.000,A,3720.2489,N,12154.4701,W,28.24,154.28,010410,,,D*44
$GPRMC,165733.000,A,3720.2183,N,12154.4474,W,22.96,144.49,010410,,,D*45
$GPRMC,165738.000,A,3720.1958,N,12154.4252,W,19.51,139.00,010410,,,D*45
$GPRMC,165743.000,A,3720.1759,N,12154.4038,W,18.91,138.28,010410,,,D*4E
$GPRMC,165748.000,A,3720.1564,N,12154.3825,W,18.61,138.35,010410,,,D*49
$GPRMC,165753.000,A,3720.1372,N,12154.3617,W,18.09,138.91,010410,,,D*4D
$GPRMC,165758.000,A,3720.1185,N,12154.3413,W,17.79,138.58,010410,,,D*47
$GPRMC,165803.000,A,3720.0995,N,12154.3215,W,17.96,139.48,010410,,,D*4F
$GPRMC,165808.000,A,3720.0808,N,12154.3010,W,17.73,138.40,010410,,,D*44
$GPRMC,165813.000,A,3720.0624,N,12154.2812,W,17.31,139.54,010410,,,D*47
$GPRMC,165818.000,A,3720.0445,N,12154.2624,W,16.55,141.91,010410,,,D*47
$GPRMC,165823.000,A,3720.0265,N,12154.2458,W,15.85,145.61,010410,,,D*47
$GPRMC,165828.000,A,3720.0083,N,12154.2316,W,14.70,149.86,010410,,,D*45
$GPRMC,165833.000,A,3719.9907,N,12154.2205,W,13.52,155.98,010410,,,D*4F
$GPRMC,165838.000,A,3719.9735,N,12154.2127,W,12.70,164.62,010410,,,D*4E
$GPRMC,165843.000,A,3719.9564,N,12154.2093,W,11.90,172.70,010410,,,D*43
$GPRMC,165848.000,A,3719.9400,N,12154.2075,W,11.63,176.13,010410,,,D*4E
$GPRMC,165853.000,A,3719.9237,N,12154.2061,W,11.76,175.53,010410,,,D*40
$GPRMC,165858.000,A,3719.9065,N,12154.2046,W,12.81,176.15,010410,,,D*41
$GPRMC,165903.000,A,3719.8885,N,12154.2034,W,12.73,176.52,010410,,,D*42
$GPRMC,165908.000,A,3719.8711,N,12154.2016,W,12.42,172.90,010410,,,D*43
$GPRMC,165913.000,A,3719.8541,N,12154.1986,W,12.13,171.63,010410,,,D*46
$GPRMC,165918.000,A,3719.8374,N,12154.1965,W,11.87,176.46,010410,,,D*4E
$GPRMC,165923.000,A,3719.8211,N,12154.1960,W,11.66,177.80,010410,,,D*45
$GPRMC,165928.000,A,3719.8053,N,12154.1945,W,11.28,175.82,010410,,,D*47
$GPRMC,165933.000,A,3719.7918,N,12154.1931,W,7.13,174.42,010410,,,D*75
$GPRMC,165938.000,A,3719.7864,N,12154.1921,W,0.86,154.85,010410,,,D*77
$GPRMC,165943.000,A,3719.7855,N,12154.1934,W,0.29,240.58,010410,,,D*7E
                                                                                                                              
                                                                                                                              
                                                                           