$ADVER,3080,2.3
$GPRMC,013353.185,A,4734.7999,N,12219.9192,W,43.15,180.12,101110,,,A*4E
$GPRMC,013358.000,A,4734.7418,N,12219.9195,W,43.07,180.00,101110,,,A*4A
$GPRMC,013403.000,A,4734.6819,N,12219.9194,W,43.10,179.99,101110,,,A*4E
$GPRMC,013408.000,A,4734.6231,N,12219.9185,W,42.79,179.57,101110,,,A*49
$GPRMC,013413.000,A,4734.5643,N,12219.9130,W,42.59,174.16,101110,,,D*40
$GPRMC,013418.000,A,4734.5053,N,12219.8982,W,43.02,173.28,101110,,,D*49
$GPRMC,013423.000,A,4734.4458,N,12219.8971,W,42.96,179.53,101110,,,D*49
$GPRMC,013428.000,A,4734.3865,N,12219.9018,W,42.57,181.36,101110,,,D*49
$GPRMC,013433.000,A,4734.3252,N,12219.9010,W,42.82,180.77,101110,,,A*4C
$GPRMC,013438.000,A,4734.2658,N,12219.9078,W,42.72,183.56,101110,,,A*49
$GPRMC,013443.000,A,4734.2053,N,12219.9045,W,43.17,180.92,101110,,,A*4F
$GPRMC,013448.000,A,4734.1440,N,12219.9003,W,43.94,177.95,101110,,,A*47
$GPRMC,013453.000,A,4734.0833,N,12219.8999,W,43.53,180.75,101110,,,A*42
$GPRMC,013458.000,A,4734.0215,N,12219.8907,W,43.67,178.84,101110,,,A*4E
$GPRMC,013503.000,A,4733.9624,N,12219.8937,W,42.28,180.04,101110,,,D*4A
$GPRMC,013508.000,A,4733.9058,N,12219.8965,W,41.19,180.83,101110,,,D*45
$GPRMC,013513.000,A,4733.8489,N,12219.8926,W,40.94,174.66,101110,,,D*45
$GPRMC,013518.000,A,4733.7938,N,12219.8764,W,39.95,164.69,101110,,,D*4F
$GPRMC,013523.000,A,4733.7434,N,12219.8377,W,40.11,147.85,101110,,,D*41
$GPRMC,013528.000,A,4733.6973,N,12219.7774,W,43.16,138.39,101110,,,D*46
$GPRMC,013533.000,A,4733.6526,N,12219.7216,W,43.73,139.01,101110,,,D*48
$GPRMC,013538.000,A,4733.6072,N,12219.6550,W,45.54,137.61,101110,,,A*4D
$GPRMC,013543.000,A,4733.5612,N,12219.5957,W,45.43,139.19,101110,,,A*4D
$GPRMC,013548.000,A,4733.5139,N,12219.5312,W,46.71,137.78,101110,,,A*48
$GPRMC,013553.000,A,4733.4649,N,12219.4642,W,47.16,138.35,101110,,,A*44
$GPRMC,013558.000,A,4733.4156,N,12219.4006,W,46.62,138.47,101110,,,A*47
$GPRMC,013603.000,A,4733.3661,N,12219.3392,W,46.83,140.63,101110,,,A*41
$GPRMC,013608.000,A,4733.3177,N,12219.2820,W,46.64,142.15,101110,,,A*43
$GPRMC,013613.000,A,4733.2616,N,12219.2248,W,48.57,144.80,101110,,,A*48
$GPRMC,013618.000,A,4733.2039,N,12219.1627,W,51.12,145.02,101110,,,A*44
$GPRMC,013623.000,A,4733.1450,N,12219.1072,W,48.90,146.15,101110,,,A*45
$GPRMC,013628.000,A,4733.0847,N,12219.0497,W,51.81,144.76,101110,,,A*44
$GPRMC,013633.000,A,4733.0267,N,12218.9911,W,50.95,143.99,101110,,,A*4F
$GPRMC,013638.000,A,4732.9703,N,12218.9257,W,52.17,143.16,101110,,,A*4D
$GPRMC,013643.000,A,4732.9125,N,12218.8645,W,52.59,144.69,101110,,,A*40
$GPRMC,013648.000,A,4732.8493,N,12218.8018,W,56.63,144.20,101110,,,A*4C
$GPRMC,013653.000,A,4732.7842,N,12218.7292,W,56.35,142.99,101110,,,A*41
$GPRMC,013658.000,A,4732.7215,N,12218.6477,W,59.22,139.20,101110,,,A*49
$GPRMC,013703.000,A,4732.6586,N,12218.5727,W,58.13,140.51,101110,,,A*44
$GPRMC,013708.000,A,4732.5931,N,12218.4982,W,60.09,140.61,101110,,,A*4F
$GPRMC,013713.000,A,4732.5267,N,12218.4172,W,61.58,140.93,101110,,,A*42
$GPRMC,013718.000,A,4732.4586,N,12218.3335,W,61.68,140.90,101110,,,A*46
$GPRMC,013723.000,A,4732.3905,N,12218.2518,W,62.56,139.96,101110,,,A*40
$GPRMC,013728.000,A,4732.3221,N,12218.1757,W,61.45,141.17,101110,,,D*4E
$GPRMC,013733.000,A,4732.2526,N,12218.0935,W,64.37,141.15,101110,,,D*4C
$GPRMC,013738.000,A,4732.1834,N,12218.0131,W,64.72,141.41,101110,,,D*46
$GPRMC,013743.000,A,4732.1115,N,12217.9289,W,65.73,141.97,101110,,,D*4D
$GPRMC,013748.000,A,4732.0353,N,12217.8528,W,66.55,149.75,101110,,,A*4C
$GPRMC,013753.000,A,4731.9494,N,12217.7924,W,68.53,157.22,101110,,,A*4A
$GPRMC,013758.000,A,4731.8584,N,12217.7485,W,65.77,162.17,101110,,,A*4D
$GPRMC,013803.000,A,4731.7723,N,12217.7117,W,65.40,162.64,101110,,,A*42
$GPRMC,013808.000,A,4731.6838,N,12217.6709,W,66.39,162.36,101110,,,A*4F
$GPRMC,013813.000,A,4731.5957,N,12217.6320,W,66.55,162.49,101110,,,A*43
$GPRMC,013818.000,A,4731.5076,N,12217.5923,W,66.87,162.25,101110,,,A*4D
$GPRMC,013823.000,A,4731.4221,N,12217.5530,W,66.65,162.17,101110,,,A*47
$GPRMC,013828.000,A,4731.3356,N,12217.5177,W,65.98,163.10,101110,,,A*4A
$GPRMC,013833.000,A,4731.2435,N,12217.4750,W,67.50,162.10,101110,,,A*46
$GPRMC,013838.000,A,4731.1575,N,12217.4239,W,67.27,160.48,101110,,,A*4E
$GPRMC,013843.000,A,4731.0678,N,12217.3734,W,67.74,158.83,101110,,,A*48
$GPRMC,013848.000,A,4730.9794,N,12217.3231,W,67.12,159.19,101110,,,A*4A
$GPRMC,013853.000,A,4730.8914,N,12217.2758,W,67.82,158.84,101110,,,A*40
$GPRMC,013858.000,A,4730.8017,N,12217.2240,W,68.53,158.55,101110,,,A*42
$GPRMC,013903.000,A,4730.7132,N,12217.1772,W,67.72,158.94,101110,,,A*42
$GPRMC,013908.000,A,4730.6236,N,12217.1277,W,68.73,158.70,101110,,,A*4B
$GPRMC,013913.000,A,4730.5325,N,12217.0777,W,68.88,158.26,101110,,,A*42
$GPRMC,013918.000,A,4730.4469,N,12217.0170,W,66.89,152.37,101110,,,A*43
$GPRMC,013923.000,A,4730.3733,N,12216.9568,W,65.70,149.99,101110,,,A*4E
$GPRMC,013928.000,A,4730.2941,N,12216.8779,W,68.02,145.30,101110,,,A*4B
$GPRMC,013933.000,A,4730.2086,N,12216.7902,W,69.75,145.88,101110,,,A*4C
$GPRMC,013938.000,A,4730.1254,N,12216.7095,W,69.07,145.26,101110,,,A*4F
$GPRMC,013943.000,A,4730.0504,N,12216.6281,W,68.29,143.16,101110,,,A*4E
$GPRMC,013948.000,A,4729.9786,N,12216.5383,W,69.34,141.09,101110,,,A*4D
$GPRMC,013953.000,A,4729.9041,N,12216.4463,W,68.87,140.08,101110,,,A*4A
$GPRMC,013958.000,A,4729.8335,N,12216.3552,W,68.63,140.20,101110,,,A*44
$GPRMC,014003.000,A,4729.7599,N,12216.2637,W,69.13,139.99,101110,,,A*40
$GPRMC,014008.000,A,4729.6859,N,12216.1702,W,70.06,139.60,101110,,,A*45
$GPRMC,014013.000,A,4729.6098,N,12216.0844,W,68.92,144.74,101110,,,A*4D
$GPRMC,014018.000,A,4729.5274,N,12216.0139,W,70.15,152.62,101110,,,A*40
$GPRMC,014023.000,A,4729.4398,N,12215.9584,W,68.68,155.99,101110,,,A*42
$GPRMC,014028.000,A,4729.3535,N,12215.9081,W,68.11,156.33,101110,,,A*42
$GPRMC,014033.000,A,4729.2707,N,12215.8520,W,66.43,151.89,101110,,,A*4A
$GPRMC,014038.000,A,4729.1905,N,12215.7715,W,67.39,142.92,101110,,,A*41
$GPRMC,014043.000,A,4729.1252,N,12215.6723,W,66.59,132.68,101110,,,A*45
$GPRMC,014048.000,A,4729.0660,N,12215.5587,W,67.65,127.96,101110,,,A*4E
$GPRMC,014053.000,A,4729.0105,N,12215.4688,W,62.90,135.12,101110,,,A*4D
$GPRMC,014058.000,A,4728.9376,N,12215.3885,W,65.02,147.75,101110,,,A*44
$GPRMC,014103.000,A,4728.8588,N,12215.3383,W,62.04,154.64,101110,,,A*43
$GPRMC,014108.000,A,4728.7763,N,12215.2849,W,61.41,155.00,101110,,,A*4D
$GPRMC,014113.000,A,4728.6977,N,12215.2348,W,63.24,154.94,101110,,,A*4A
$GPRMC,014118.000,A,4728.6189,N,12215.1776,W,61.79,151.88,101110,,,A*40
$GPRMC,014123.000,A,4728.5427,N,12215.1070,W,62.65,149.28,101110,,,A*46
$GPRMC,014128.000,A,4728.4705,N,12215.0377,W,62.07,145.73,101110,,,A*4C
$GPRMC,014133.000,A,4728.4020,N,12214.9654,W,59.94,145.52,101110,,,A*4B
$GPRMC,014138.000,A,4728.3365,N,12214.8984,W,58.98,144.73,101110,,,A*49
$GPRMC,014143.000,A,4728.2699,N,12214.8249,W,58.94,144.02,101110,,,A*42
$GPRMC,014148.000,A,4728.2057,N,12214.7619,W,54.49,145.67,101110,,,A*4D
$GPRMC,014153.000,A,4728.1476,N,12214.7041,W,53.53,145.47,101110,,,A*46
$GPRMC,014158.000,A,4728.0896,N,12214.6395,W,50.18,144.42,101110,,,A*4D
$GPRMC,014203.000,A,4728.0371,N,12214.5836,W,49.11,143.89,101110,,,A*42
$GPRMC,014208.000,A,4727.9859,N,12214.5266,W,45.08,142.99,101110,,,A*45
$GPRMC,014213.000,A,4727.9362,N,12214.4754,W,41.34,147.36,101110,,,A*42
$GPRMC,014218.000,A,4727.8901,N,12214.4320,W,37.72,152.86,101110,,,A*4C
$GPRMC,014223.000,A,4727.8423,N,12214.4218,W,33.07,166.62,101110,,,A*48
$GPRMC,014228.000,A,4727.7968,N,12214.4148,W,30.84,175.74,101110,,,A*45
$GPRMC,014233.000,A,4727.7544,N,12214.4174,W,28.27,180.54,101110,,,A*4A
$GPRMC,014238.000,A,4727.7161,N,12214.4188,W,24.57,182.62,101110,,,A*4D
$GPRMC,014243.000,A,4727.6864,N,12214.4211,W,19.03,183.34,101110,,,A*42
$GPRMC,014248.000,A,4727.6628,N,12214.4170,W,15.87,181.27,101110,,,A*4B
$GPRMC,014253.000,A,4727.6429,N,12214.4209,W,13.95,183.71,101110,,,A*4B
$GPRMC,014258.000,A,4727.6251,N,12214.4140,W,11.55,176.78,101110,,,A*4A
$GPRMC,014303.000,A,4727.6106,N,12214.4116,W,9.70,172.72,101110,,,A*77
$GPRMC,014308.000,A,4727.5963,N,12214.4130,W,9.25,181.47,101110,,,A*7A
$GPRMC,014313.000,A,4727.5872,N,12214.4140,W,3.67,196.62,101110,,,A*7B
$GPRMC,014318.000,A,4727.5880,N,12214.4088,W,0.00,150.54,101110,,,A*75
$GPRMC,014323.000,A,4727.5880,N,12214.4088,W,0.00,150.54,101110,,,A*7D
$GPRMC,014328.000,A,4727.5880,N,12214.4088,W,0.00,150.54,101110,,,A*76
$GPRMC,014333.000,A,4727.5880,N,12214.4088,W,0.00,150.54,101110,,,A*7C
$GPRMC,014338.000,A,4727.5880,N,12214.4088,W,0.00,150.54,101110,,,A*77
$GPRMC,014343.000,A,4727.5880,N,12214.4088,W,0.00,150.54,101110,,,A*7B
$GPRMC,014348.000,A,4727.5895,N,12214.4161,W,0.87,311.43,101110,,,A*7C
$GPRMC,014353.000,A,4727.5898,N,12214.4163,W,0.00,311.43,101110,,,A*76
$GPRMC,014358.000,A,4727.5898,N,12214.4163,W,0.00,311.43,101110,,,A*7D
$GPRMC,014403.000,A,4727.5898,N,12214.4163,W,0.00,311.43,101110,,,A*74
$GPRMC,014408.000,A,4727.5898,N,12214.4163,W,0.00,311.43,101110,,,A*7F
$GPRMC,014413.000,A,4727.5898,N,12214.4163,W,0.00,311.43,101110,,,A*75
$GPRMC,014418.000,A,4727.5898,N,12214.4163,W,0.00,311.43,101110,,,A*7E
$GPRMC,014423.000,A,4727.5898,N,12214.4163,W,0.00,311.43,101110,,,A*76
$GPRMC,014428.000,A,4727.5898,N,12214.4163,W,0.00,311.43,101110,,,A*7D
$GPRMC,014433.000,A,4727.5898,N,12214.4163,W,0.00,311.43,101110,,,A*77
$GPRMC,014438.000,A,4727.5898,N,12214.4163,W,0.00,311.43,101110,,,A*7C
$GPRMC,014443.000,A,4727.5898,N,12214.4163,W,0.00,311.43,101110,,,A*70
$GPRMC,014448.000,A,4727.5898,N,12214.4163,W,0.00,311.43,101110,,,A*7B
$GPRMC,014453.000,A,4727.5898,N,12214.4163,W,0.00,311.43,101110,,,A*71
$GPRMC,014458.000,A,4727.5898,N,12214.4163,W,0.00,311.43,101110,,,A*7A
$GPRMC,014503.000,A,4727.5839,N,12214.4143,W,3.14,190.65,101110,,,A*75
$GPRMC,014508.000,A,4727.5776,N,12214.4186,W,6.48,187.54,101110,,,A*7B
$GPRMC,014513.000,A,4727.5677,N,12214.4217,W,9.48,182.35,101110,,,A*77
$GPRMC,014518.000,A,4727.5527,N,12214.4210,W,13.16,179.74,101110,,,A*4C
$GPRMC,014523.000,A,4727.5306,N,12214.4211,W,15.77,178.87,101110,,,A*4C
$GPRMC,014528.000,A,4727.5054,N,12214.4181,W,19.35,179.85,101110,,,A*40
$GPRMC,014533.000,A,4727.4754,N,12214.4171,W,22.45,178.42,101110,,,A*46
$GPRMC,014538.000,A,4727.4421,N,12214.4157,W,24.11,180.69,101110,,,A*41
$GPRMC,014543.000,A,4727.4048,N,12214.4181,W,27.98,180.33,101110,,,A*40
$GPRMC,014548.000,A,4727.3615,N,12214.4213,W,30.84,181.55,101110,,,A*40
$GPRMC,014553.000,A,4727.3146,N,12214.4220,W,33.51,181.53,101110,,,A*46
$GPRMC,014558.000,A,4727.2662,N,12214.4241,W,35.34,181.01,101110,,,A*48
$GPRMC,014603.000,A,4727.2118,N,12214.4307,W,38.50,182.80,101110,,,A*49
$GPRMC,014608.000,A,4727.1586,N,12214.4289,W,38.13,179.03,101110,,,A*4D
$GPRMC,014613.000,A,4727.1026,N,12214.4297,W,41.40,179.99,101110,,,A*4C
$GPRMC,014618.000,A,4727.0439,N,12214.4325,W,42.65,183.00,101110,,,A*45
$GPRMC,014623.000,A,4726.9834,N,12214.4302,W,44.43,180.22,101110,,,A*40
$GPRMC,014628.000,A,4726.9186,N,12214.4332,W,46.72,180.26,101110,,,A*4C
$GPRMC,014633.000,A,4726.8485,N,12214.4346,W,48.90,181.64,101110,,,A*47
$GPRMC,014638.000,A,4726.7785,N,12214.4360,W,49.54,181.07,101110,,,A*48
$GPRMC,014643.000,A,4726.7090,N,12214.4405,W,50.64,181.20,101110,,,A*4D
$GPRMC,014648.000,A,4726.6358,N,12214.4428,W,52.91,180.50,101110,,,A*41
$GPRMC,014653.000,A,4726.5625,N,12214.4456,W,53.80,181.19,101110,,,A*43
$GPRMC,014658.000,A,4726.4886,N,12214.4485,W,55.35,180.67,101110,,,A*40
$GPRMC,014703.000,A,4726.4120,N,12214.4503,W,55.95,180.89,101110,,,A*4F
$GPRMC,014708.000,A,4726.3325,N,12214.4526,W,57.46,179.49,101110,,,A*45
$GPRMC,014713.000,A,4726.2530,N,12214.4465,W,57.64,175.11,101110,,,A*4B
$GPRMC,014718.000,A,4726.1710,N,12214.4282,W,59.41,172.73,101110,,,A*46
$GPRMC,014723.000,A,4726.0878,N,12214.4113,W,61.20,171.00,101110,,,A*4E
$GPRMC,014728.000,A,4726.0042,N,12214.3942,W,61.66,172.70,101110,,,A*49
$GPRMC,014733.000,A,4725.9194,N,12214.3773,W,62.35,172.18,101110,,,A*44
$GPRMC,014738.000,A,4725.8341,N,12214.3607,W,62.96,172.55,101110,,,A*46
$GPRMC,014743.000,A,4725.7453,N,12214.3459,W,64.50,172.24,101110,,,A*42
$GPRMC,014748.000,A,4725.6567,N,12214.3307,W,65.03,173.02,101110,,,A*40
$GPRMC,014753.000,A,4725.5664,N,12214.3135,W,65.72,172.90,101110,,,A*46
$GPRMC,014758.000,A,4725.4754,N,12214.2997,W,66.24,173.13,101110,,,A*45
$GPRMC,014803.000,A,4725.3819,N,12214.2835,W,67.26,173.24,101110,,,A*4B
$GPRMC,014808.000,A,4725.2902,N,12214.2672,W,66.47,173.09,101110,,,A*4E
$GPRMC,014813.000,A,4725.1959,N,12214.2517,W,68.14,173.51,101110,,,A*4C
$GPRMC,014818.000,A,4725.1021,N,12214.2325,W,67.97,173.36,101110,,,A*43
$GPRMC,014823.000,A,4725.0089,N,12214.2142,W,68.17,171.86,101110,,,A*45
$GPRMC,014828.000,A,4724.9153,N,12214.1954,W,67.68,172.62,101110,,,A*42
$GPRMC,014833.000,A,4724.8214,N,12214.1796,W,67.83,173.13,101110,,,A*4B
$GPRMC,014838.000,A,4724.7273,N,12214.1628,W,68.07,173.36,101110,,,A*4E
$GPRMC,014843.000,A,4724.6323,N,12214.1454,W,68.34,172.02,101110,,,A*48
$GPRMC,014848.000,A,4724.5375,N,12214.1269,W,68.26,173.41,101110,,,A*4E
$GPRMC,014853.000,A,4724.4420,N,12214.1142,W,68.45,173.96,101110,,,A*47
$GPRMC,014858.000,A,4724.3481,N,12214.0946,W,68.16,171.79,101110,,,A*48
$GPRMC,014903.000,A,4724.2564,N,12214.0752,W,67.40,172.55,101110,,,A*46
$GPRMC,014908.000,A,4724.1637,N,12214.0545,W,68.37,172.48,101110,,,A*4C
$GPRMC,014913.000,A,4724.0690,N,12214.0405,W,68.08,173.83,101110,,,A*45
$GPRMC,014918.000,A,4723.9728,N,12214.0229,W,68.93,172.63,101110,,,A*47
$GPRMC,014923.000,A,4723.8782,N,12214.0042,W,68.68,172.02,101110,,,A*42
$GPRMC,014928.000,A,4723.7828,N,12213.9840,W,69.06,172.84,101110,,,A*4A
$GPRMC,014933.000,A,4723.6872,N,12213.9777,W,69.01,176.29,101110,,,A*41
$GPRMC,014938.000,A,4723.5920,N,12213.9796,W,68.81,180.63,101110,,,A*4E
$GPRMC,014943.000,A,4723.4971,N,12213.9818,W,67.89,179.78,101110,,,A*45
$GPRMC,014948.000,A,4723.4007,N,12213.9828,W,68.94,179.49,101110,,,A*44
$GPRMC,014953.000,A,4723.3032,N,12213.9847,W,69.11,179.97,101110,,,A*49
$GPRMC,014958.000,A,4723.2066,N,12213.9840,W,69.04,179.78,101110,,,A*40
$GPRMC,015003.000,A,4723.1116,N,12213.9804,W,68.99,178.84,101110,,,A*44
$GPRMC,015008.000,A,4723.0161,N,12213.9796,W,68.48,179.67,101110,,,A*4A
$GPRMC,015013.000,A,4722.9200,N,12213.9779,W,69.11,179.24,101110,,,A*47
$GPRMC,015018.000,A,4722.8214,N,12213.9796,W,69.21,179.98,101110,,,A*4D
$GPRMC,015023.000,A,4722.7251,N,12213.9718,W,68.81,178.93,101110,,,A*4C
$GPRMC,015028.000,A,4722.6316,N,12213.9683,W,68.27,179.76,101110,,,A*41
$GPRMC,015033.000,A,4722.5389,N,12213.9638,W,68.14,178.97,101110,,,A*40
$GPRMC,015038.000,A,4722.4454,N,12213.9644,W,68.17,179.45,101110,,,A*4B
$GPRMC,015043.000,A,4722.3489,N,12213.9670,W,68.73,179.90,101110,,,A*4D
$GPRMC,015048.000,A,4722.2525,N,12213.9671,W,68.47,178.83,101110,,,A*45
$GPRMC,015053.000,A,4722.1572,N,12213.9692,W,69.03,179.90,101110,,,A*41
$GPRMC,015058.000,A,4722.0599,N,12213.9682,W,68.84,179.66,101110,,,A*48
$GPRMC,015103.000,A,4721.9646,N,12213.9666,W,68.49,179.93,101110,,,A*4D
$GPRMC,015108.000,A,4721.8703,N,12213.9641,W,67.91,179.02,101110,,,A*40
$GPRMC,015113.000,A,4721.7776,N,12213.9642,W,67.11,179.58,101110,,,A*43
$GPRMC,015118.000,A,4721.6819,N,12213.9631,W,67.88,179.62,101110,,,A*42
$GPRMC,015123.000,A,4721.5876,N,12213.9607,W,67.80,179.44,101110,,,A*49
$GPRMC,015128.000,A,4721.4921,N,12213.9605,W,68.08,179.62,101110,,,A*49
$GPRMC,015133.000,A,4721.3990,N,12213.9574,W,68.47,179.01,101110,,,A*45
$GPRMC,015138.000,A,4721.3041,N,12213.9571,W,68.13,179.72,101110,,,A*4B
$GPRMC,015143.000,A,4721.2096,N,12213.9544,W,68.51,180.09,101110,,,A*46
$GPRMC,015148.000,A,4721.1174,N,12213.9561,W,67.56,179.79,101110,,,A*4D
$GPRMC,015153.000,A,4721.0215,N,12213.9552,W,67.65,179.48,101110,,,A*40
$GPRMC,015158.000,A,4720.9274,N,12213.9546,W,67.02,179.65,101110,,,A*4F
$GPRMC,015203.000,A,4720.8333,N,12213.9531,W,67.77,179.46,101110,,,A*42
$GPRMC,015208.000,A,4720.7408,N,12213.9516,W,67.12,179.50,101110,,,A*48
$GPRMC,015213.000,A,4720.6482,N,12213.9506,W,67.40,179.69,101110,,,A*4D
$GPRMC,015218.000,A,4720.5546,N,12213.9483,W,66.83,179.40,101110,,,A*45
$GPRMC,015223.000,A,4720.4596,N,12213.9479,W,67.43,179.56,101110,,,A*4E
$GPRMC,015228.000,A,4720.3657,N,12213.9473,W,67.13,179.62,101110,,,A*44
$GPRMC,015233.000,A,4720.2735,N,12213.9460,W,67.06,179.57,101110,,,A*4A
$GPRMC,015238.000,A,4720.1817,N,12213.9451,W,66.24,179.60,101110,,,A*4A
$GPRMC,015243.000,A,4720.0860,N,12213.9446,W,67.64,179.63,101110,,,A*47
$GPRMC,015248.000,A,4719.9916,N,12213.9424,W,67.17,179.65,101110,,,A*49
$GPRMC,015253.000,A,4719.8998,N,12213.9418,W,67.24,179.73,101110,,,A*4C
$GPRMC,015258.000,A,4719.8026,N,12213.9398,W,67.84,179.79,101110,,,A*44
$GPRMC,015303.000,A,4719.7098,N,12213.9407,W,67.80,179.73,101110,,,A*4E
$GPRMC,015308.000,A,4719.6149,N,12213.9428,W,67.67,179.76,101110,,,A*48
$GPRMC,015313.000,A,4719.5219,N,12213.9423,W,67.75,179.68,101110,,,A*40
$GPRMC,015318.000,A,4719.4297,N,12213.9413,W,67.72,179.71,101110,,,A*40
$GPRMC,015323.000,A,4719.3338,N,12213.9412,W,68.75,179.76,101110,,,A*45
$GPRMC,015328.000,A,4719.2397,N,12213.9384,W,66.93,179.69,101110,,,A*4A
$GPRMC,015333.000,A,4719.1483,N,12213.9370,W,67.28,179.56,101110,,,A*47
$GPRMC,015338.000,A,4719.0542,N,12213.9368,W,67.94,179.69,101110,,,A*43
$GPRMC,015343.000,A,4718.9600,N,12213.9359,W,67.99,179.55,101110,,,A*42
$GPRMC,015348.000,A,4718.8635,N,12213.9364,W,67.65,179.68,101110,,,A*4D
$GPRMC,015353.000,A,4718.7692,N,12213.9357,W,67.33,179.84,101110,,,A*44
$GPRMC,015358.000,A,4718.6770,N,12213.9349,W,68.08,179.81,101110,,,A*4E
$GPRMC,015403.000,A,4718.5813,N,12213.9351,W,67.54,180.06,101110,,,A*48
$GPRMC,015408.000,A,4718.4864,N,12213.9346,W,67.33,179.36,101110,,,A*40
$GPRMC,015413.000,A,4718.3911,N,12213.9328,W,66.62,179.36,101110,,,A*43
$GPRMC,015418.000,A,4718.3006,N,12213.9296,W,66.26,178.08,101110,,,A*4F
$GPRMC,015423.000,A,4718.2078,N,12213.9223,W,66.24,177.47,101110,,,A*47
$GPRMC,015428.000,A,4718.1154,N,12213.9166,W,66.79,177.61,101110,,,A*4E
$GPRMC,015433.000,A,4718.0221,N,12213.9113,W,67.20,177.60,101110,,,A*4A
$GPRMC,015438.000,A,4717.9275,N,12213.9047,W,67.70,177.64,101110,,,A*47
$GPRMC,015443.000,A,4717.8367,N,12213.8995,W,67.27,177.80,101110,,,A*47
$GPRMC,015448.000,A,4717.7429,N,12213.8948,W,67.58,177.63,101110,,,A*4B
$GPRMC,015453.000,A,4717.6483,N,12213.8888,W,67.95,177.66,101110,,,A*49
$GPRMC,015458.000,A,4717.5537,N,12213.8821,W,67.83,177.76,101110,,,A*4A
$GPRMC,015503.000,A,4717.4605,N,12213.8775,W,67.33,177.73,101110,,,A*46
$GPRMC,015508.000,A,4717.3681,N,12213.8712,W,67.70,177.79,101110,,,A*4A
$GPRMC,015513.000,A,4717.2743,N,12213.8678,W,67.52,177.54,101110,,,A*4C
$GPRMC,015518.000,A,4717.1786,N,12213.8628,W,67.88,177.35,101110,,,A*48
$GPRMC,015523.000,A,4717.0833,N,12213.8583,W,67.96,177.83,101110,,,A*40
$GPRMC,015528.000,A,4716.9868,N,12213.8536,W,68.24,177.81,101110,,,A*47
$GPRMC,015533.000,A,4716.8928,N,12213.8474,W,67.78,177.96,101110,,,A*4E
$GPRMC,015538.000,A,4716.7991,N,12213.8422,W,67.16,177.74,101110,,,A*4F
$GPRMC,015543.000,A,4716.7067,N,12213.8369,W,65.57,177.76,101110,,,A*4E
$GPRMC,015548.000,A,4716.6193,N,12213.8312,W,62.60,177.68,101110,,,A*4E
$GPRMC,015553.000,A,4716.5364,N,12213.8256,W,58.67,177.62,101110,,,A*48
$GPRMC,015558.000,A,4716.4569,N,12213.8201,W,55.53,177.65,101110,,,D*43
$GPRMC,015603.000,A,4716.3826,N,12213.8159,W,51.00,177.57,101110,,,D*42
$GPRMC,015608.000,A,4716.3148,N,12213.8125,W,47.92,176.88,101110,,,D*4C
$GPRMC,015613.000,A,4716.2526,N,12213.8096,W,43.22,177.42,101110,,,D*4A
$GPRMC,015618.000,A,4716.1927,N,12213.8070,W,43.38,177.91,101110,,,D*42
$GPRMC,015623.000,A,4716.1321,N,12213.8033,W,42.83,177.56,101110,,,D*4B
$GPRMC,015628.000,A,4716.0723,N,12213.7987,W,43.42,175.72,101110,,,D*46
$GPRMC,015633.000,A,4716.0104,N,12213.7952,W,43.94,178.29,101110,,,A*4A
$GPRMC,015638.000,A,4715.9472,N,12213.7919,W,42.80,178.23,101110,,,A*4E
$GPRMC,015643.000,A,4715.8824,N,12213.7878,W,46.77,178.06,101110,,,A*41
$GPRMC,015648.000,A,4715.8179,N,12213.7842,W,46.66,177.49,101110,,,A*46
$GPRMC,015653.000,A,4715.7498,N,12213.7811,W,48.40,177.48,101110,,,A*44
$GPRMC,015658.000,A,4715.6817,N,12213.7760,W,48.11,177.57,101110,,,A*46
$GPRMC,015703.000,A,4715.6100,N,12213.7718,W,51.61,177.60,101110,,,A*42
$GPRMC,015708.000,A,4715.5356,N,12213.7684,W,53.35,177.86,101110,,,A*44
$GPRMC,015713.000,A,4715.4603,N,12213.7640,W,54.59,177.77,101110,,,A*41
$GPRMC,015718.000,A,4715.3836,N,12213.7592,W,56.23,177.83,101110,,,A*4D
$GPRMC,015723.000,A,4715.3028,N,12213.7562,W,57.73,178.30,101110,,,A*4E
$GPRMC,015728.000,A,4715.2203,N,12213.7528,W,59.27,178.08,101110,,,A*45
$GPRMC,015733.000,A,4715.1356,N,12213.7467,W,61.20,177.89,101110,,,A*4D
$GPRMC,015738.000,A,4715.0467,N,12213.7413,W,62.86,177.43,101110,,,A*48
$GPRMC,015743.000,A,4714.9620,N,12213.7382,W,62.29,178.03,101110,,,A*4C
$GPRMC,015748.000,A,4714.8735,N,12213.7363,W,64.18,177.96,101110,,,A*4B
$GPRMC,015753.000,A,4714.7838,N,12213.7291,W,65.57,178.10,101110,,,A*4B
$GPRMC,015758.000,A,4714.6926,N,12213.7206,W,65.68,177.65,101110,,,A*40
$GPRMC,015803.000,A,4714.6006,N,12213.7149,W,67.15,177.87,101110,,,A*46
$GPRMC,015808.000,A,4714.5056,N,12213.7105,W,67.30,178.20,101110,,,A*46
$GPRMC,015813.000,A,4714.4127,N,12213.7060,W,67.49,178.44,101110,,,A*44
$GPRMC,015818.000,A,4714.3202,N,12213.7019,W,67.86,177.64,101110,,,A*4C
$GPRMC,015823.000,A,4714.2262,N,12213.6973,W,67.68,177.92,101110,,,A*4E
$GPRMC,015828.000,A,4714.1301,N,12213.6939,W,68.96,178.05,101110,,,A*43
$GPRMC,015833.000,A,4714.0351,N,12213.6891,W,68.84,178.01,101110,,,A*49
$GPRMC,015838.000,A,4713.9395,N,12213.6847,W,68.86,178.41,101110,,,A*49
$GPRMC,015843.000,A,4713.8431,N,12213.6795,W,68.94,178.23,101110,,,A*4A
$GPRMC,015848.000,A,4713.7469,N,12213.6748,W,68.63,178.31,101110,,,A*48
$GPRMC,015853.000,A,4713.6517,N,12213.6624,W,68.61,177.20,101110,,,A*4D
$GPRMC,015858.000,A,4713.5555,N,12213.6578,W,68.81,177.12,101110,,,A*46
$GPRMC,015903.000,A,4713.4590,N,12213.6522,W,69.46,178.44,101110,,,A*48
$GPRMC,015908.000,A,4713.3656,N,12213.6499,W,68.88,178.78,101110,,,A*40
$GPRMC,015913.000,A,4713.2713,N,12213.6447,W,68.74,177.76,101110,,,A*4A
$GPRMC,015918.000,A,4713.1754,N,12213.6382,W,68.16,178.08,101110,,,A*4D
$GPRMC,015923.000,A,4713.0806,N,12213.6394,W,69.04,185.18,101110,,,A*4A
$GPRMC,015928.000,A,4712.9909,N,12213.6704,W,67.77,197.13,101110,,,A*48
$GPRMC,015933.000,A,4712.9057,N,12213.7331,W,68.44,209.20,101110,,,A*48
$GPRMC,015938.000,A,4712.8303,N,12213.8145,W,68.29,217.72,101110,,,A*4D
$GPRMC,015943.000,A,4712.7566,N,12213.9004,W,68.81,218.12,101110,,,A*45
$GPRMC,015948.000,A,4712.6819,N,12213.9891,W,68.70,218.21,101110,,,A*40
$GPRMC,015953.000,A,4712.6080,N,12214.0734,W,68.16,217.38,101110,,,A*4B
$GPRMC,015958.000,A,4712.5354,N,12214.1572,W,67.45,217.82,101110,,,A*40
$GPRMC,020003.000,A,4712.4624,N,12214.2423,W,66.75,217.91,101110,,,A*44
$GPRMC,020008.000,A,4712.3869,N,12214.3284,W,67.19,217.97,101110,,,A*48
$GPRMC,020013.000,A,4712.3151,N,12214.4094,W,67.31,217.76,101110,,,A*41
$GPRMC,020018.000,A,4712.2420,N,12214.4947,W,65.70,218.21,101110,,,A*45
$GPRMC,020023.000,A,4712.1652,N,12214.5808,W,68.22,218.18,101110,,,A*42
$GPRMC,020028.000,A,4712.0872,N,12214.6679,W,68.48,217.73,101110,,,A*41
$GPRMC,020033.000,A,4712.0100,N,12214.7561,W,68.91,218.02,101110,,,A*41
$GPRMC,020038.000,A,4711.9365,N,12214.8446,W,68.37,218.23,101110,,,A*45
$GPRMC,020043.000,A,4711.8634,N,12214.9291,W,68.08,217.89,101110,,,A*47
$GPRMC,020048.000,A,4711.7880,N,12215.0123,W,67.68,217.85,101110,,,A*45
$GPRMC,020053.000,A,4711.7133,N,12215.0988,W,67.27,218.08,101110,,,A*46
$GPRMC,020058.000,A,4711.6397,N,12215.1862,W,68.25,218.11,101110,,,A*41
$GPRMC,020103.000,A,4711.5652,N,12215.2714,W,66.82,218.42,101110,,,A*49
$GPRMC,020108.000,A,4711.4936,N,12215.3571,W,67.41,218.48,101110,,,A*4A
$GPRMC,020113.000,A,4711.4192,N,12215.4434,W,68.13,220.62,101110,,,A*4A
$GPRMC,020118.000,A,4711.3510,N,12215.5465,W,69.75,230.65,101110,,,A*4A
$GPRMC,020123.000,A,4711.2989,N,12215.6678,W,69.81,241.29,101110,,,A*47
$GPRMC,020128.000,A,4711.2647,N,12215.7985,W,69.17,252.49,101110,,,A*46
$GPRMC,020133.000,A,4711.2505,N,12215.9381,W,68.20,264.99,101110,,,A*44
$GPRMC,020138.000,A,4711.2564,N,12216.0773,W,67.82,277.10,101110,,,A*4F
$GPRMC,020143.000,A,4711.2800,N,12216.2129,W,68.10,284.50,101110,,,A*4B
$GPRMC,020148.000,A,4711.3063,N,12216.3490,W,68.12,284.76,101110,,,A*4C
$GPRMC,020153.000,A,4711.3288,N,12216.4855,W,69.81,284.73,101110,,,A*4D
$GPRMC,020158.000,A,4711.3519,N,12216.6227,W,68.96,284.89,101110,,,A*46
$GPRMC,020203.000,A,4711.3771,N,12216.7575,W,68.83,284.88,101110,,,A*43
$GPRMC,020208.000,A,4711.4021,N,12216.8932,W,69.08,284.77,101110,,,A*4F
$GPRMC,020213.000,A,4711.4262,N,12217.0290,W,68.54,284.07,101110,,,A*45
$GPRMC,020218.000,A,4711.4509,N,12217.1651,W,69.38,284.74,101110,,,A*43
$GPRMC,020223.000,A,4711.4764,N,12217.3003,W,69.08,285.19,101110,,,A*48
$GPRMC,020228.000,A,4711.4996,N,12217.4364,W,68.70,284.40,101110,,,A*46
$GPRMC,020233.000,A,4711.5259,N,12217.5721,W,69.10,284.90,101110,,,A*4B
$GPRMC,020238.000,A,4711.5487,N,12217.7082,W,68.72,284.38,101110,,,A*4E
$GPRMC,020243.000,A,4711.5724,N,12217.8442,W,68.98,284.36,101110,,,A*45
$GPRMC,020248.000,A,4711.5949,N,12217.9805,W,68.49,284.66,101110,,,A*4C
$GPRMC,020253.000,A,4711.6193,N,12218.1155,W,68.50,285.23,101110,,,A*49
$GPRMC,020258.000,A,4711.6426,N,12218.2504,W,68.38,284.08,101110,,,A*4C
$GPRMC,020303.000,A,4711.6690,N,12218.3842,W,68.49,286.23,101110,,,D*4A
$GPRMC,020308.000,A,4711.6946,N,12218.5179,W,68.37,283.84,101110,,,D*43
$GPRMC,020313.000,A,4711.7170,N,12218.6525,W,68.34,283.61,101110,,,D*43
$GPRMC,020318.000,A,4711.7446,N,12218.7862,W,68.59,286.38,101110,,,D*45
$GPRMC,020323.000,A,4711.7705,N,12218.9200,W,68.34,284.20,101110,,,D*49
$GPRMC,020328.000,A,4711.7943,N,12219.0543,W,68.11,283.74,101110,,,D*47
$GPRMC,020333.000,A,4711.8180,N,12219.1882,W,67.99,284.74,101110,,,D*4C
$GPRMC,020338.000,A,4711.8431,N,12219.3220,W,68.33,285.30,101110,,,D*46
$GPRMC,020343.000,A,4711.8657,N,12219.4566,W,68.20,285.84,101110,,,D*47
$GPRMC,020348.000,A,4711.8869,N,12219.5920,W,67.94,283.72,101110,,,D*4F
$GPRMC,020353.000,A,4711.9095,N,12219.7262,W,67.54,284.03,101110,,,D*4D
$GPRMC,020358.000,A,4711.9309,N,12219.8605,W,67.25,283.16,101110,,,D*4F
$GPRMC,020403.000,A,4711.9550,N,12219.9933,W,67.17,283.44,101110,,,D*41
$GPRMC,020408.000,A,4711.9780,N,12220.1249,W,66.05,284.43,101110,,,D*43
$GPRMC,020413.000,A,4711.9980,N,12220.2539,W,63.76,281.40,101110,,,D*43
$GPRMC,020418.000,A,4712.0172,N,12220.3763,W,59.88,283.63,101110,,,D*40
$GPRMC,020423.000,A,4712.0371,N,12220.4880,W,54.52,283.92,101110,,,D*48
$GPRMC,020428.000,A,4712.0562,N,12220.5890,W,49.41,286.13,101110,,,D*45
$GPRMC,020433.000,A,4712.0751,N,12220.6805,W,45.73,289.19,101110,,,D*4A
$GPRMC,020438.000,A,4712.0936,N,12220.7673,W,44.64,286.32,101110,,,D*41
$GPRMC,020443.000,A,4712.1080,N,12220.8550,W,44.58,285.27,101110,,,D*4D
$GPRMC,020448.000,A,4712.1298,N,12220.9393,W,44.34,296.60,101110,,,D*4E
$GPRMC,020453.000,A,4712.1699,N,12221.0121,W,44.99,312.58,101110,,,D*43
$GPRMC,020458.000,A,4712.2174,N,12221.0767,W,46.01,318.03,101110,,,D*4C
$GPRMC,020503.000,A,4712.2662,N,12221.1413,W,47.33,317.63,101110,,,D*4B
$GPRMC,020508.000,A,4712.3157,N,12221.2076,W,48.77,317.54,101110,,,D*4F
$GPRMC,020513.000,A,4712.3668,N,12221.2763,W,49.82,317.71,101110,,,A*44
$GPRMC,020518.000,A,4712.4193,N,12221.3466,W,51.18,317.92,101110,,,A*4B
$GPRMC,020523.000,A,4712.4724,N,12221.4175,W,52.81,318.09,101110,,,A*47
$GPRMC,020528.000,A,4712.5274,N,12221.4905,W,54.07,317.73,101110,,,A*48
$GPRMC,020533.000,A,4712.5836,N,12221.5662,W,54.84,317.88,101110,,,A*4E
$GPRMC,020538.000,A,4712.6410,N,12221.6436,W,56.68,317.53,101110,,,A*48
$GPRMC,020543.000,A,4712.6994,N,12221.7222,W,57.13,317.89,101110,,,A*4D
$GPRMC,020548.000,A,4712.7555,N,12221.7977,W,55.60,317.16,101110,,,A*4D
$GPRMC,020553.000,A,4712.8129,N,12221.8764,W,56.52,317.74,101110,,,A*42
$GPRMC,020558.000,A,4712.8708,N,12221.9532,W,55.49,317.67,101110,,,A*47
$GPRMC,020603.000,A,4712.9256,N,12222.0252,W,52.87,317.84,101110,,,A*46
$GPRMC,020608.000,A,4712.9772,N,12222.0927,W,48.86,317.50,101110,,,A*44
$GPRMC,020613.000,A,4713.0246,N,12222.1593,W,45.53,314.12,101110,,,A*46
$GPRMC,020618.000,A,4713.0617,N,12222.2291,W,42.34,305.63,101110,,,A*4B
$GPRMC,020623.000,A,4713.0927,N,12222.2994,W,42.89,304.17,101110,,,A*45
$GPRMC,020628.000,A,4713.1257,N,12222.3729,W,43.05,303.25,101110,,,A*49
$GPRMC,020633.000,A,4713.1583,N,12222.4460,W,42.75,304.17,101110,,,A*44
$GPRMC,020638.000,A,4713.1904,N,12222.5184,W,43.06,305.27,101110,,,A*45
$GPRMC,020643.000,A,4713.2251,N,12222.5961,W,43.76,303.46,101110,,,A*44
$GPRMC,020648.000,A,4713.2580,N,12222.6742,W,44.96,302.89,101110,,,A*43
$GPRMC,020653.000,A,4713.2924,N,12222.7512,W,45.52,303.65,101110,,,A*47
$GPRMC,020658.000,A,4713.3293,N,12222.8248,W,45.07,305.99,101110,,,A*48
$GPRMC,020703.000,A,4713.3728,N,12222.8931,W,44.58,319.02,101110,,,A*43
$GPRMC,020708.000,A,4713.4246,N,12222.9402,W,42.69,333.10,101110,,,A*41
$GPRMC,020713.000,A,4713.4841,N,12222.9697,W,43.78,343.00,101110,,,A*4F
$GPRMC,020718.000,A,4713.5458,N,12222.9937,W,44.66,343.85,101110,,,A*41
$GPRMC,020723.000,A,4713.6085,N,12223.0178,W,44.74,344.38,101110,,,A*47
$GPRMC,020728.000,A,4713.6695,N,12223.0433,W,45.34,342.64,101110,,,A*4B
$GPRMC,020733.000,A,4713.7263,N,12223.0820,W,46.87,329.01,101110,,,A*46
$GPRMC,020738.000,A,4713.7717,N,12223.1476,W,44.71,311.09,101110,,,A*4D
$GPRMC,020743.000,A,4713.7961,N,12223.2350,W,45.89,289.83,101110,,,A*4A
$GPRMC,020748.000,A,4713.8102,N,12223.3219,W,45.19,285.89,101110,,,A*41
$GPRMC,020753.000,A,4713.8184,N,12223.4134,W,45.63,284.41,101110,,,A*46
$GPRMC,020758.000,A,4713.8369,N,12223.5022,W,45.32,289.89,101110,,,A*46
$GPRMC,020803.000,A,4713.8674,N,12223.5837,W,45.14,303.28,101110,,,A*4E
$GPRMC,020808.000,A,4713.9126,N,12223.6511,W,45.17,320.46,101110,,,A*44
$GPRMC,020813.000,A,4713.9664,N,12223.6984,W,45.23,334.38,101110,,,A*44
$GPRMC,020818.000,A,4714.0198,N,12223.7213,W,38.12,345.59,101110,,,A*48
$GPRMC,020823.000,A,4714.0732,N,12223.7375,W,38.89,352.09,101110,,,A*46
$GPRMC,020828.000,A,4714.1278,N,12223.7497,W,35.80,349.80,101110,,,A*43
$GPRMC,020833.000,A,4714.1791,N,12223.7628,W,33.06,348.73,101110,,,A*48
$GPRMC,020838.000,A,4714.2250,N,12223.7756,W,30.42,350.58,101110,,,A*43
$GPRMC,020843.000,A,4714.2661,N,12223.7834,W,30.37,347.67,101110,,,A*4A
$GPRMC,020848.000,A,4714.3088,N,12223.8131,W,34.25,329.45,101110,,,A*4D
$GPRMC,020853.000,A,4714.3461,N,12223.8599,W,33.15,312.41,101110,,,A*4A
$GPRMC,020858.000,A,4714.3716,N,12223.9191,W,32.82,295.15,101110,,,A*4F
$GPRMC,020903.000,A,4714.3859,N,12223.9834,W,33.08,286.77,101110,,,A*47
$GPRMC,020908.000,A,4714.3965,N,12224.0472,W,31.08,286.86,101110,,,A*4E
$GPRMC,020913.000,A,4714.4073,N,12224.1065,W,29.74,286.71,101110,,,A*44
$GPRMC,020918.000,A,4714.4188,N,12224.1669,W,31.34,285.29,101110,,,A*43
$GPRMC,020923.000,A,4714.4341,N,12224.2272,W,31.31,293.44,101110,,,A*48
$GPRMC,020928.000,A,4714.4539,N,12224.2839,W,31.87,299.16,101110,,,A*4F
$GPRMC,020933.000,A,4714.4752,N,12224.3414,W,31.60,298.03,101110,,,A*44
$GPRMC,020938.000,A,4714.4962,N,12224.3999,W,32.39,299.16,101110,,,A*40
$GPRMC,020943.000,A,4714.5195,N,12224.4565,W,32.09,299.81,101110,,,A*48
$GPRMC,020948.000,A,4714.5406,N,12224.5123,W,32.46,299.16,101110,,,A*4E
$GPRMC,020953.000,A,4714.5633,N,12224.5719,W,32.65,301.12,101110,,,A*4A
$GPRMC,020958.000,A,4714.5849,N,12224.6299,W,32.24,296.76,101110,,,A*44
$GPRMC,021003.000,A,4714.5992,N,12224.6894,W,31.36,284.32,101110,,,A*41
$GPRMC,021008.000,A,4714.6016,N,12224.7505,W,29.18,268.68,101110,,,A*40
$GPRMC,021013.000,A,4714.5960,N,12224.8071,W,27.04,263.27,101110,,,A*4B
$GPRMC,021018.000,A,4714.5892,N,12224.8573,W,23.37,261.00,101110,,,A*48
$GPRMC,021023.000,A,4714.5851,N,12224.8999,W,19.68,260.96,101110,,,A*4A
$GPRMC,021028.000,A,4714.5807,N,12224.9361,W,18.94,261.15,101110,,,A*46
$GPRMC,021033.000,A,4714.5771,N,12224.9744,W,18.52,265.11,101110,,,A*4B
$GPRMC,021038.000,A,4714.5750,N,12225.0152,W,17.15,261.36,101110,,,A*47
$GPRMC,021043.000,A,4714.5641,N,12225.0472,W,18.31,252.90,101110,,,A*48
$GPRMC,021048.000,A,4714.5562,N,12225.0830,W,18.04,252.16,101110,,,A*43
$GPRMC,021053.000,A,4714.5471,N,12225.1172,W,17.53,250.24,101110,,,A*4A
$GPRMC,021058.000,A,4714.5392,N,12225.1523,W,17.46,252.21,101110,,,A*48
$GPRMC,021103.000,A,4714.5325,N,12225.1877,W,17.19,255.18,101110,,,A*40
$GPRMC,021108.000,A,4714.5282,N,12225.2211,W,15.39,261.56,101110,,,A*43
$GPRMC,021113.000,A,4714.5259,N,12225.2552,W,14.36,264.25,101110,,,A*40
$GPRMC,021118.000,A,4714.5225,N,12225.2807,W,10.15,263.66,101110,,,A*48
$GPRMC,021123.000,A,4714.5221,N,12225.2950,W,4.31,267.23,101110,,,A*71
$GPRMC,021128.000,A,4714.5222,N,12225.2977,W,0.00,275.39,101110,,,A*72
$GPRMC,021133.000,A,4714.5222,N,12225.2977,W,0.00,275.39,101110,,,A*78
$GPRMC,021138.000,A,4714.5222,N,12225.2977,W,0.00,275.39,101110,,,A*73
$GPRMC,021143.000,A,4714.5222,N,12225.2977,W,0.00,275.39,101110,,,A*7F
$GPRMC,021148.000,A,4714.5222,N,12225.2977,W,0.00,275.39,101110,,,A*74
$GPRMC,021153.000,A,4714.5222,N,12225.2977,W,0.00,275.39,101110,,,A*7E
$GPRMC,021158.000,A,4714.5222,N,12225.2977,W,0.00,275.39,101110,,,A*75
$GPRMC,021203.000,A,4714.5222,N,12225.2977,W,0.00,275.39,101110,,,A*78
$GPRMC,021208.000,A,4714.5222,N,12225.2977,W,0.00,275.39,101110,,,A*73
$GPRMC,021213.000,A,4714.5222,N,12225.2977,W,0.00,275.39,101110,,,A*79
$GPRMC,021218.000,A,4714.5222,N,12225.2977,W,0.00,275.39,101110,,,A*72
$GPRMC,021223.000,A,4714.5222,N,12225.2977,W,0.00,275.39,101110,,,A*7A
$GPRMC,021228.000,A,4714.5222,N,12225.2977,W,0.00,275.39,101110,,,A*71
$GPRMC,021233.000,A,4714.5222,N,12225.2977,W,0.00,275.39,101110,,,A*7B
$GPRMC,021238.000,A,4714.5222,N,12225.2977,W,0.00,275.39,101110,,,A*70
$GPRMC,021243.000,A,4714.5222,N,12225.2977,W,0.00,275.39,101110,,,A*7C
$GPRMC,021248.000,A,4714.5222,N,12225.2977,W,0.00,275.39,101110,,,A*77
$GPRMC,021253.000,A,4714.5222,N,12225.2977,W,0.00,275.39,101110,,,A*7D
$GPRMC,021258.000,A,4714.5222,N,12225.2977,W,0.00,275.39,101110,,,A*76
$GPRMC,021303.000,A,4714.5222,N,12225.2977,W,0.00,275.39,101110,,,A*79
$GPRMC,021308.000,A,4714.5222,N,12225.2977,W,0.00,275.39,101110,,,A*72
$GPRMC,021313.000,A,4714.5222,N,12225.2977,W,0.00,275.39,101110,,,A*78
$GPRMC,021318.000,A,4714.5230,N,12225.3015,W,2.94,246.19,101110,,,A*71
$GPRMC,021323.000,A,4714.5202,N,12225.3111,W,6.12,247.57,101110,,,A*7C
$GPRMC,021328.000,A,4714.5170,N,12225.3285,W,10.00,264.68,101110,,,A*46
$GPRMC,021333.000,A,4714.5150,N,12225.3521,W,11.86,260.31,101110,,,A*40
$GPRMC,021338.000,A,4714.5138,N,12225.3804,W,12.78,266.99,101110,,,A*49
$GPRMC,021343.000,A,4714.5109,N,12225.4095,W,14.58,262.54,101110,,,A*41
$GPRMC,021348.000,A,4714.5082,N,12225.4416,W,15.57,261.16,101110,,,A*4C
$GPRMC,021353.000,A,4714.5046,N,12225.4738,W,15.55,261.82,101110,,,A*4E
$GPRMC,021358.000,A,4714.5006,N,12225.5048,W,15.36,261.44,101110,,,A*4F
$GPRMC,021403.000,A,4714.4981,N,12225.5375,W,15.26,263.11,101110,,,A*4F
$GPRMC,021408.000,A,4714.4958,N,12225.5685,W,15.22,265.85,101110,,,A*45
$GPRMC,021413.000,A,4714.4923,N,12225.6024,W,17.21,262.79,101110,,,A*48
$GPRMC,021418.000,A,4714.4906,N,12225.6416,W,18.50,265.83,101110,,,A*4A
$GPRMC,021423.000,A,4714.4878,N,12225.6837,W,21.27,262.96,101110,,,A*4C
$GPRMC,021428.000,A,4714.4838,N,12225.7299,W,23.32,262.72,101110,,,A*40
$GPRMC,021433.000,A,4714.4785,N,12225.7793,W,26.49,264.17,101110,,,A*40
$GPRMC,021438.000,A,4714.4738,N,12225.8356,W,27.79,265.85,101110,,,A*47
$GPRMC,021443.000,A,4714.4748,N,12225.8963,W,29.92,281.52,101110,,,A*4B
$GPRMC,021448.000,A,4714.4908,N,12225.9534,W,30.08,301.46,101110,,,A*42
$GPRMC,021453.000,A,4714.5184,N,12226.0012,W,30.57,319.37,101110,,,A*4B
$GPRMC,021458.000,A,4714.5549,N,12226.0365,W,30.83,329.14,101110,,,A*4D
$GPRMC,021503.000,A,4714.5953,N,12226.0668,W,32.37,333.89,101110,,,A*4F
$GPRMC,021508.000,A,4714.6349,N,12226.0848,W,30.14,349.62,101110,,,A*41
$GPRMC,021513.000,A,4714.6820,N,12226.0834,W,31.76,351.52,101110,,,A*4B
$GPRMC,021518.000,A,4714.7255,N,12226.0890,W,32.37,351.90,101110,,,A*4F
$GPRMC,021523.000,A,4714.7715,N,12226.0985,W,32.36,352.31,101110,,,A*4A
$GPRMC,021528.000,A,4714.8182,N,12226.1076,W,33.57,351.22,101110,,,A*45
$GPRMC,021533.000,A,4714.8645,N,12226.1184,W,34.16,352.16,101110,,,A*49
$GPRMC,021538.000,A,4714.9117,N,12226.1288,W,34.94,351.66,101110,,,A*42
$GPRMC,021543.000,A,4714.9592,N,12226.1336,W,35.28,354.51,101110,,,A*44
$GPRMC,021548.000,A,4715.0080,N,12226.1345,W,35.95,3.80,101110,,,A*4E
$GPRMC,021553.000,A,4715.0573,N,12226.1291,W,35.39,5.77,101110,,,A*4D
$GPRMC,021558.000,A,4715.1088,N,12226.1297,W,36.61,353.79,101110,,,A*40
$GPRMC,021603.000,A,4715.1602,N,12226.1414,W,37.15,350.26,101110,,,A*4F
$GPRMC,021608.000,A,4715.2095,N,12226.1512,W,36.71,351.29,101110,,,A*45
$GPRMC,021613.000,A,4715.2595,N,12226.1630,W,35.97,351.36,101110,,,A*4C
$GPRMC,021618.000,A,4715.3092,N,12226.1780,W,35.43,347.81,101110,,,A*4C
$GPRMC,021623.000,A,4715.3567,N,12226.1990,W,35.10,338.87,101110,,,A*4C
$GPRMC,021628.000,A,4715.4021,N,12226.2335,W,36.02,331.17,101110,,,A*41
$GPRMC,021633.000,A,4715.4460,N,12226.2726,W,35.38,329.19,101110,,,A*41
$GPRMC,021638.000,A,4715.4888,N,12226.3116,W,36.30,329.76,101110,,,A*46
$GPRMC,021643.000,A,4715.5321,N,12226.3492,W,36.03,329.42,101110,,,A*4D
$GPRMC,021648.000,A,4715.5787,N,12226.3852,W,37.52,330.52,101110,,,A*42
$GPRMC,021653.000,A,4715.6258,N,12226.4216,W,38.11,331.07,101110,,,A*48
$GPRMC,021658.000,A,4715.6724,N,12226.4572,W,37.91,331.82,101110,,,A*42
$GPRMC,021703.000,A,4715.7202,N,12226.4944,W,38.07,331.80,101110,,,A*46
$GPRMC,021708.000,A,4715.7652,N,12226.5314,W,37.56,331.50,101110,,,A*44
$GPRMC,021713.000,A,4715.8114,N,12226.5683,W,38.18,332.13,101110,,,A*4E
$GPRMC,021718.000,A,4715.8588,N,12226.6041,W,37.73,331.99,101110,,,A*4C
$GPRMC,021723.000,A,4715.9048,N,12226.6398,W,37.26,331.11,101110,,,A*4B
$GPRMC,021728.000,A,4715.9499,N,12226.6772,W,37.25,331.50,101110,,,A*4E
$GPRMC,021733.000,A,4715.9954,N,12226.7204,W,38.69,320.59,101110,,,A*43
$GPRMC,021738.000,A,4716.0293,N,12226.7780,W,37.31,307.99,101110,,,A*40
$GPRMC,021743.000,A,4716.0604,N,12226.8402,W,38.22,308.31,101110,,,A*40
$GPRMC,021748.000,A,4716.0945,N,12226.8984,W,39.75,318.00,101110,,,A*42
$GPRMC,021753.000,A,4716.1410,N,12226.9486,W,40.01,325.76,101110,,,A*48
$GPRMC,021758.000,A,4716.1888,N,12226.9951,W,40.98,325.49,101110,,,A*45
$GPRMC,021803.000,A,4716.2308,N,12227.0477,W,41.00,315.38,101110,,,A*40
$GPRMC,021808.000,A,4716.2688,N,12227.1075,W,40.97,312.79,101110,,,A*4C
$GPRMC,021813.000,A,4716.3059,N,12227.1766,W,43.27,304.93,101110,,,A*43
$GPRMC,021818.000,A,4716.3412,N,12227.2481,W,43.42,305.10,101110,,,A*43
$GPRMC,021823.000,A,4716.3715,N,12227.3256,W,43.77,294.87,101110,,,A*43
$GPRMC,021828.000,A,4716.3922,N,12227.4100,W,45.21,289.96,101110,,,A*4C
$GPRMC,021833.000,A,4716.4147,N,12227.4979,W,46.27,293.03,101110,,,A*4E
$GPRMC,021838.000,A,4716.4451,N,12227.5848,W,48.65,298.99,101110,,,A*45
$GPRMC,021843.000,A,4716.4748,N,12227.6725,W,47.29,295.48,101110,,,A*43
$GPRMC,021848.000,A,4716.4997,N,12227.7641,W,49.80,288.15,101110,,,A*4F
$GPRMC,021853.000,A,4716.5199,N,12227.8620,W,49.85,288.39,101110,,,A*41
$GPRMC,021858.000,A,4716.5400,N,12227.9585,W,49.40,288.28,101110,,,A*4B
$GPRMC,021903.000,A,4716.5606,N,12228.0564,W,49.89,287.44,101110,,,A*49
$GPRMC,021908.000,A,4716.5792,N,12228.1548,W,50.60,287.46,101110,,,A*4C
$GPRMC,021913.000,A,4716.6011,N,12228.2529,W,51.06,292.91,101110,,,A*42
$GPRMC,021918.000,A,4716.6374,N,12228.3431,W,51.55,305.30,101110,,,A*42
$GPRMC,021923.000,A,4716.6812,N,12228.4285,W,51.92,306.69,101110,,,A*4B
$GPRMC,021928.000,A,4716.7266,N,12228.5153,W,52.84,307.16,101110,,,A*4C
$GPRMC,021933.000,A,4716.7724,N,12228.6043,W,54.49,307.08,101110,,,A*4E
$GPRMC,021938.000,A,4716.8178,N,12228.6927,W,53.84,306.87,101110,,,A*4E
$GPRMC,021943.000,A,4716.8625,N,12228.7808,W,54.43,307.00,101110,,,A*42
$GPRMC,021948.000,A,4716.9080,N,12228.8694,W,53.71,307.19,101110,,,A*4B
$GPRMC,021953.000,A,4716.9546,N,12228.9564,W,54.79,306.47,101110,,,A*46
$GPRMC,021958.000,A,4717.0020,N,12229.0440,W,54.24,309.13,101110,,,A*49
$GPRMC,022003.000,A,4717.0496,N,12229.1259,W,54.85,312.26,101110,,,A*4C
$GPRMC,022008.000,A,4717.1012,N,12229.2085,W,53.53,312.67,101110,,,A*47
$GPRMC,022013.000,A,4717.1547,N,12229.2920,W,55.22,312.48,101110,,,A*43
$GPRMC,022018.000,A,4717.2071,N,12229.3760,W,55.17,315.06,101110,,,A*4B
$GPRMC,022023.000,A,4717.2642,N,12229.4485,W,52.58,323.28,101110,,,A*4F
$GPRMC,022028.000,A,4717.3282,N,12229.5101,W,54.82,325.03,101110,,,A*4B
$GPRMC,022033.000,A,4717.3891,N,12229.5730,W,53.66,324.69,101110,,,A*4D
$GPRMC,022038.000,A,4717.4505,N,12229.6368,W,53.53,322.67,101110,,,A*45
$GPRMC,022043.000,A,4717.5072,N,12229.7059,W,52.03,317.29,101110,,,A*45
$GPRMC,022048.000,A,4717.5547,N,12229.7792,W,48.40,311.71,101110,,,A*4A
$GPRMC,022053.000,A,4717.5934,N,12229.8516,W,43.36,309.07,101110,,,A*4B
$GPRMC,022058.000,A,4717.6267,N,12229.9169,W,39.10,307.95,101110,,,A*4F
$GPRMC,022103.000,A,4717.6586,N,12229.9773,W,35.18,307.89,101110,,,A*4C
$GPRMC,022108.000,A,4717.6883,N,12230.0344,W,35.34,308.00,101110,,,A*4E
$GPRMC,022113.000,A,4717.7189,N,12230.0922,W,35.88,309.08,101110,,,A*42
$GPRMC,022118.000,A,4717.7507,N,12230.1507,W,36.70,308.88,101110,,,A*4C
$GPRMC,022123.000,A,4717.7818,N,12230.2083,W,36.88,308.02,101110,,,A*48
$GPRMC,022128.000,A,4717.8126,N,12230.2694,W,37.85,304.39,101110,,,A*40
$GPRMC,022133.000,A,4717.8392,N,12230.3379,W,39.35,297.27,101110,,,A*41
$GPRMC,022138.000,A,4717.8608,N,12230.4135,W,38.58,291.07,101110,,,A*4F
$GPRMC,022143.000,A,4717.8800,N,12230.4870,W,38.58,291.07,101110,,,E*49
$GPRMC,022148.000,A,4717.8788,N,12230.5780,W,43.52,271.20,101110,,,A*45
$GPRMC,022153.000,A,4717.8763,N,12230.6702,W,43.90,268.30,101110,,,A*44
$GPRMC,022158.000,A,4717.8721,N,12230.7616,W,44.67,263.93,101110,,,A*41
$GPRMC,022203.000,A,4717.8624,N,12230.8509,W,44.20,261.32,101110,,,E*44
$GPRMC,022208.000,A,4717.8531,N,12230.9401,W,44.20,261.32,101110,,,E*40
$GPRMC,022213.000,A,4717.8438,N,12231.0293,W,44.20,261.32,101110,,,E*47
$GPRMC,022253.000,A,4717.4991,N,12231.6914,W,53.06,221.07,101110,,,A*47
$GPRMC,022258.000,A,4717.4160,N,12231.7246,W,50.60,192.59,101110,,,A*44
$GPRMC,022303.000,A,4717.3541,N,12231.7275,W,51.70,182.65,101110,,,A*45
$GPRMC,022308.000,A,4717.2794,N,12231.7314,W,52.56,182.00,101110,,,A*47
$GPRMC,022313.000,A,4717.2073,N,12231.7336,W,53.23,181.59,101110,,,A*4F
$GPRMC,022318.000,A,4717.1308,N,12231.7345,W,54.40,180.91,101110,,,A*4B
$GPRMC,022323.000,A,4717.0561,N,12231.7372,W,54.37,180.65,101110,,,A*44
$GPRMC,022328.000,A,4716.9780,N,12231.7479,W,56.23,187.96,101110,,,A*4A
$GPRMC,022333.000,A,4716.8945,N,12231.7775,W,57.98,197.34,101110,,,A*41
$GPRMC,022338.000,A,4716.8222,N,12231.8284,W,58.13,203.84,101110,,,A*4D
$GPRMC,022343.000,A,4716.7432,N,12231.8790,W,60.24,202.73,101110,,,A*4F
$GPRMC,022348.000,A,4716.6684,N,12231.9307,W,60.41,204.54,101110,,,A*41
$GPRMC,022353.000,A,4716.5878,N,12231.9838,W,62.95,203.72,101110,,,A*4A
$GPRMC,022358.000,A,4716.5063,N,12232.0325,W,63.06,201.94,101110,,,A*4F
$GPRMC,022403.000,A,4716.4230,N,12232.0849,W,65.48,204.65,101110,,,A*45
$GPRMC,022408.000,A,4716.3424,N,12232.1547,W,66.50,213.79,101110,,,A*49
$GPRMC,022413.000,A,4716.2698,N,12232.2319,W,63.18,215.87,101110,,,A*47
$GPRMC,022418.000,A,4716.1996,N,12232.3106,W,64.65,215.17,101110,,,A*47
$GPRMC,022423.000,A,4716.1305,N,12232.3911,W,63.82,217.02,101110,,,A*49
$GPRMC,022428.000,A,4716.0600,N,12232.4691,W,65.79,215.61,101110,,,A*46
$GPRMC,022433.000,A,4715.9896,N,12232.5511,W,64.38,218.25,101110,,,A*44
$GPRMC,022438.000,A,4715.9150,N,12232.6267,W,66.05,214.12,101110,,,A*4D
$GPRMC,022443.000,A,4715.8306,N,12232.6930,W,63.30,211.45,101110,,,A*4C
$GPRMC,022448.000,A,4715.7530,N,12232.7480,W,61.73,205.24,101110,,,A*4B
$GPRMC,022453.000,A,4715.6658,N,12232.7979,W,65.25,203.97,101110,,,A*4F
$GPRMC,022458.000,A,4715.5807,N,12232.8523,W,64.29,204.47,101110,,,A*48
$GPRMC,022503.000,A,4715.5002,N,12232.9071,W,62.26,204.12,101110,,,A*40
$GPRMC,022508.000,A,4715.4247,N,12232.9609,W,58.65,204.76,101110,,,A*4C
$GPRMC,022513.000,A,4715.3518,N,12233.0026,W,53.87,197.08,101110,,,A*48
$GPRMC,022518.000,A,4715.2815,N,12233.0217,W,48.99,189.13,101110,,,A*42
$GPRMC,022523.000,A,4715.2177,N,12233.0353,W,44.99,188.21,101110,,,A*4A
$GPRMC,022528.000,A,4715.1620,N,12233.0472,W,39.06,187.32,101110,,,A*42
$GPRMC,022533.000,A,4715.1121,N,12233.0573,W,34.60,187.30,101110,,,A*41
$GPRMC,022538.000,A,4715.0668,N,12233.0667,W,32.05,188.67,101110,,,A*4F
$GPRMC,022543.000,A,4715.0243,N,12233.0753,W,30.75,187.88,101110,,,A*43
$GPRMC,022548.000,A,4714.9812,N,12233.0837,W,30.40,187.84,101110,,,A*49
$GPRMC,022553.000,A,4714.9403,N,12233.0975,W,30.61,194.51,101110,,,A*41
$GPRMC,022558.000,A,4714.9002,N,12233.1180,W,30.73,201.96,101110,,,A*4B
$GPRMC,022603.000,A,4714.8615,N,12233.1464,W,30.67,208.31,101110,,,A*49
$GPRMC,022608.000,A,4714.8228,N,12233.1786,W,31.95,209.32,101110,,,A*49
$GPRMC,022613.000,A,4714.7840,N,12233.2120,W,32.14,209.34,101110,,,A*4D
$GPRMC,022618.000,A,4714.7437,N,12233.2440,W,32.78,210.19,101110,,,A*44
$GPRMC,022623.000,A,4714.7022,N,12233.2816,W,35.56,210.07,101110,,,A*47
$GPRMC,022628.000,A,4714.6588,N,12233.3186,W,37.23,208.04,101110,,,A*43
$GPRMC,022633.000,A,4714.6126,N,12233.3570,W,38.65,210.22,101110,,,A*44
$GPRMC,022638.000,A,4714.5646,N,12233.3986,W,40.07,209.97,101110,,,A*45
$GPRMC,022643.000,A,4714.5145,N,12233.4405,W,42.27,209.27,101110,,,A*47
$GPRMC,022648.000,A,4714.4610,N,12233.4852,W,44.74,209.63,101110,,,A*44
$GPRMC,022653.000,A,4714.4072,N,12233.5291,W,44.90,208.95,101110,,,A*4A
$GPRMC,022658.000,A,4714.3500,N,12233.5754,W,46.56,209.88,101110,,,A*4F
$GPRMC,022703.000,A,4714.2929,N,12233.6273,W,48.72,209.62,101110,,,A*49
$GPRMC,022708.000,A,4714.2323,N,12233.6764,W,50.07,210.53,101110,,,A*40
$GPRMC,022713.000,A,4714.1706,N,12233.7328,W,51.78,214.50,101110,,,A*49
$GPRMC,022718.000,A,4714.1092,N,12233.7910,W,52.50,210.15,101110,,,A*45
$GPRMC,022723.000,A,4714.0420,N,12233.8367,W,53.95,201.72,101110,,,A*4D
$GPRMC,022728.000,A,4713.9694,N,12233.8611,W,53.96,190.32,101110,,,A*4D
$GPRMC,022733.000,A,4713.8889,N,12233.8485,W,57.22,174.60,101110,,,A*4D
$GPRMC,022738.000,A,4713.8111,N,12233.8383,W,57.45,176.88,101110,,,A*4A
$GPRMC,022743.000,A,4713.7277,N,12233.8356,W,58.65,181.33,101110,,,A*47
$GPRMC,022748.000,A,4713.6465,N,12233.8483,W,59.78,187.59,101110,,,A*40
$GPRMC,022753.000,A,4713.5628,N,12233.8724,W,61.27,192.79,101110,,,A*4B
$GPRMC,022758.000,A,4713.4805,N,12233.9070,W,60.72,197.22,101110,,,A*4D
$GPRMC,022803.000,A,4713.4011,N,12233.9543,W,61.61,204.14,101110,,,A*4B
$GPRMC,022808.000,A,4713.3266,N,12234.0110,W,63.44,208.50,101110,,,A*40
$GPRMC,022813.000,A,4713.2496,N,12234.0810,W,66.04,213.84,101110,,,A*49
$GPRMC,022818.000,A,4713.1721,N,12234.1669,W,67.25,219.82,101110,,,A*41
$GPRMC,022823.000,A,4713.1053,N,12234.2620,W,66.51,222.62,101110,,,A*41
$GPRMC,022828.000,A,4713.0370,N,12234.3545,W,66.82,222.74,101110,,,A*41
$GPRMC,022833.000,A,4712.9702,N,12234.4481,W,66.88,223.43,101110,,,A*43
$GPRMC,022838.000,A,4712.9005,N,12234.5381,W,67.46,219.27,101110,,,A*46
$GPRMC,022843.000,A,4712.8238,N,12234.6189,W,67.33,213.17,101110,,,A*45
$GPRMC,022848.000,A,4712.7420,N,12234.6881,W,67.52,207.56,101110,,,A*48
$GPRMC,022853.000,A,4712.6571,N,12234.7442,W,66.99,201.92,101110,,,A*4C
$GPRMC,022858.000,A,4712.5697,N,12234.7860,W,66.15,196.08,101110,,,A*49
$GPRMC,022903.000,A,4712.4789,N,12234.8130,W,65.85,191.83,101110,,,A*44
$GPRMC,022908.000,A,4712.3900,N,12234.8397,W,63.97,191.83,101110,,,A*4D
$GPRMC,022913.000,A,4712.3048,N,12234.8659,W,60.94,191.75,101110,,,A*4C
$GPRMC,022918.000,A,4712.2238,N,12234.8906,W,58.66,192.11,101110,,,A*41
$GPRMC,022923.000,A,4712.1448,N,12234.9147,W,58.25,192.11,101110,,,A*40
$GPRMC,022928.000,A,4712.0651,N,12234.9385,W,58.09,191.70,101110,,,A*46
$GPRMC,022933.000,A,4711.9868,N,12234.9555,W,57.22,183.27,101110,,,A*4E
$GPRMC,022938.000,A,4711.9080,N,12234.9516,W,57.15,176.21,101110,,,A*44
$GPRMC,022943.000,A,4711.8307,N,12234.9448,W,55.28,176.07,101110,,,A*47
$GPRMC,022948.000,A,4711.7549,N,12234.9384,W,52.80,176.74,101110,,,A*49
$GPRMC,022953.000,A,4711.6849,N,12234.9325,W,49.28,176.02,101110,,,A*4D
$GPRMC,022958.000,A,4711.6194,N,12234.9288,W,45.87,181.00,101110,,,A*4A
$GPRMC,023003.000,A,4711.5599,N,12234.9361,W,41.51,187.08,101110,,,A*41
$GPRMC,023008.000,A,4711.5062,N,12234.9459,W,37.76,186.86,101110,,,A*44
$GPRMC,023013.000,A,4711.4566,N,12234.9547,W,35.20,186.81,101110,,,A*46
$GPRMC,023018.000,A,4711.4082,N,12234.9621,W,34.69,187.43,101110,,,A*42
$GPRMC,023023.000,A,4711.3608,N,12234.9725,W,34.33,190.21,101110,,,A*41
$GPRMC,023028.000,A,4711.3151,N,12234.9924,W,34.53,199.66,101110,,,A*42
$GPRMC,023033.000,A,4711.2701,N,12235.0201,W,34.90,204.54,101110,,,A*47
$GPRMC,023038.000,A,4711.2253,N,12235.0503,W,35.33,203.21,101110,,,A*46
$GPRMC,023043.000,A,4711.1793,N,12235.0802,W,36.45,204.63,101110,,,A*4F
$GPRMC,023048.000,A,4711.1322,N,12235.1110,W,37.39,204.55,101110,,,A*4E
$GPRMC,023053.000,A,4711.0839,N,12235.1431,W,38.51,204.70,101110,,,A*44
$GPRMC,023058.000,A,4711.0340,N,12235.1762,W,40.05,204.87,101110,,,A*49
$GPRMC,023103.000,A,4710.9833,N,12235.2106,W,41.52,204.16,101110,,,A*4D
$GPRMC,023108.000,A,4710.9286,N,12235.2431,W,42.85,198.19,101110,,,A*43
$GPRMC,023113.000,A,4710.8703,N,12235.2693,W,43.80,196.27,101110,,,A*4D
$GPRMC,023118.000,A,4710.8115,N,12235.2961,W,43.95,197.60,101110,,,A*43
$GPRMC,023123.000,A,4710.7533,N,12235.3223,W,43.96,197.09,101110,,,A*44
$GPRMC,023128.000,A,4710.6960,N,12235.3530,W,43.73,203.10,101110,,,A*4C
$GPRMC,023133.000,A,4710.6431,N,12235.3989,W,43.40,214.35,101110,,,A*40
$GPRMC,023138.000,A,4710.5968,N,12235.4576,W,44.03,226.69,101110,,,A*4A
$GPRMC,023143.000,A,4710.5600,N,12235.5313,W,44.08,237.61,101110,,,A*40
$GPRMC,023148.000,A,4710.5351,N,12235.6145,W,44.28,249.98,101110,,,A*45
$GPRMC,023153.000,A,4710.5186,N,12235.7030,W,43.94,254.38,101110,,,A*43
$GPRMC,023158.000,A,4710.5036,N,12235.7913,W,44.31,254.87,101110,,,A*46
$GPRMC,023203.000,A,4710.4834,N,12235.8789,W,44.58,246.80,101110,,,A*49
$GPRMC,023208.000,A,4710.4512,N,12235.9579,W,45.15,236.40,101110,,,A*44
$GPRMC,023213.000,A,4710.4141,N,12236.0286,W,44.21,232.75,101110,,,A*45
$GPRMC,023218.000,A,4710.3753,N,12236.0978,W,44.23,233.21,101110,,,A*44
$GPRMC,023223.000,A,4710.3390,N,12236.1711,W,44.52,236.75,101110,,,A*45
$GPRMC,023228.000,A,4710.3092,N,12236.2517,W,44.30,245.50,101110,,,A*4F
$GPRMC,023233.000,A,4710.2863,N,12236.3376,W,44.25,250.59,101110,,,A*4B
$GPRMC,023238.000,A,4710.2650,N,12236.4243,W,44.76,249.74,101110,,,A*4F
$GPRMC,023243.000,A,4710.2426,N,12236.5107,W,45.50,249.16,101110,,,A*43
$GPRMC,023248.000,A,4710.2166,N,12236.5956,W,44.80,241.29,101110,,,A*4D
$GPRMC,023253.000,A,4710.1780,N,12236.6712,W,46.74,229.34,101110,,,A*4C
$GPRMC,023258.000,A,4710.1286,N,12236.7331,W,47.89,217.31,101110,,,A*4B
$GPRMC,023303.000,A,4710.0704,N,12236.7845,W,49.43,208.93,101110,,,A*4C
$GPRMC,023308.000,A,4710.0041,N,12236.8226,W,50.25,200.54,101110,,,A*4A
$GPRMC,023313.000,A,4709.9357,N,12236.8523,W,52.23,194.01,101110,,,A*4D
$GPRMC,023318.000,A,4709.8641,N,12236.8720,W,52.79,188.62,101110,,,A*43
$GPRMC,023323.000,A,4709.7899,N,12236.8850,W,54.39,187.59,101110,,,A*42
$GPRMC,023328.000,A,4709.7138,N,12236.8965,W,55.20,187.19,101110,,,A*41
$GPRMC,023333.000,A,4709.6360,N,12236.9115,W,56.90,187.22,101110,,,A*4B
$GPRMC,023338.000,A,4709.5569,N,12236.9267,W,57.37,187.79,101110,,,A*48
$GPRMC,023343.000,A,4709.4776,N,12236.9459,W,57.98,192.20,101110,,,A*4F
$GPRMC,023348.000,A,4709.4017,N,12236.9814,W,56.29,201.38,101110,,,A*4A
$GPRMC,023353.000,A,4709.3309,N,12237.0354,W,57.84,205.83,101110,,,A*4E
$GPRMC,023358.000,A,4709.2562,N,12237.0814,W,58.21,199.67,101110,,,A*4C
$GPRMC,023403.000,A,4709.1802,N,12237.1091,W,57.66,194.10,101110,,,A*48
$GPRMC,023408.000,A,4709.1008,N,12237.1347,W,57.51,193.80,101110,,,A*43
$GPRMC,023413.000,A,4709.0232,N,12237.1697,W,57.18,198.52,101110,,,A*42
$GPRMC,023418.000,A,4708.9469,N,12237.2149,W,59.11,205.68,101110,,,A*47
$GPRMC,023423.000,A,4708.8762,N,12237.2778,W,59.91,213.67,101110,,,A*42
$GPRMC,023428.000,A,4708.8103,N,12237.3470,W,57.77,213.71,101110,,,A*43
$GPRMC,023433.000,A,4708.7345,N,12237.3987,W,60.32,200.50,101110,,,A*47
$GPRMC,023438.000,A,4708.6580,N,12237.4326,W,58.19,198.37,101110,,,A*45
$GPRMC,023443.000,A,4708.5805,N,12237.4749,W,59.58,201.41,101110,,,A*41
$GPRMC,023448.000,A,4708.5118,N,12237.5368,W,59.32,214.92,101110,,,A*4F
$GPRMC,023453.000,A,4708.4537,N,12237.6290,W,58.78,230.88,101110,,,A*4A
$GPRMC,023458.000,A,4708.4007,N,12237.7217,W,59.10,228.35,101110,,,A*49
$GPRMC,023503.000,A,4708.3491,N,12237.8133,W,58.54,228.74,101110,,,A*44
$GPRMC,023508.000,A,4708.2931,N,12237.9045,W,59.51,228.33,101110,,,A*4F
$GPRMC,023513.000,A,4708.2440,N,12237.9969,W,58.58,230.82,101110,,,A*42
$GPRMC,023518.000,A,4708.1900,N,12238.0867,W,58.89,228.80,101110,,,A*4D
$GPRMC,023523.000,A,4708.1411,N,12238.1824,W,58.53,235.21,101110,,,A*4E
$GPRMC,023528.000,A,4708.1097,N,12238.2927,W,58.79,252.74,101110,,,A*47
$GPRMC,023533.000,A,4708.0991,N,12238.4117,W,58.00,264.63,101110,,,A*43
$GPRMC,023538.000,A,4708.0943,N,12238.5302,W,58.53,266.19,101110,,,A*49
$GPRMC,023543.000,A,4708.0852,N,12238.6516,W,59.13,260.38,101110,,,A*44
$GPRMC,023548.000,A,4708.0600,N,12238.7649,W,59.75,249.37,101110,,,A*4A
$GPRMC,023553.000,A,4708.0211,N,12238.8676,W,58.29,241.28,101110,,,A*49
$GPRMC,023558.000,A,4707.9702,N,12238.9556,W,57.23,230.13,101110,,,A*48
$GPRMC,023603.000,A,4707.9019,N,12239.0313,W,60.31,224.84,101110,,,A*4B
$GPRMC,023608.000,A,4707.8394,N,12239.1200,W,60.99,230.16,101110,,,A*49
$GPRMC,023613.000,A,4707.7814,N,12239.2105,W,60.98,226.95,101110,,,A*47
$GPRMC,023618.000,A,4707.7291,N,12239.2993,W,61.23,216.51,101110,,,A*46
$GPRMC,023623.000,A,4707.6585,N,12239.3687,W,61.85,214.31,101110,,,A*4E
$GPRMC,023628.000,A,4707.5852,N,12239.4394,W,62.42,214.93,101110,,,A*41
$GPRMC,023633.000,A,4707.5145,N,12239.5131,W,62.86,215.06,101110,,,A*4D
$GPRMC,023638.000,A,4707.4386,N,12239.5825,W,63.98,211.43,101110,,,A*4D
$GPRMC,023643.000,A,4707.3591,N,12239.6420,W,64.43,205.37,101110,,,A*4B
$GPRMC,023648.000,A,4707.2773,N,12239.6947,W,66.30,203.77,101110,,,A*47
$GPRMC,023653.000,A,4707.1995,N,12239.7639,W,66.20,216.77,101110,,,A*4A
$GPRMC,023658.000,A,4707.1294,N,12239.8533,W,65.95,222.58,101110,,,A*4A
$GPRMC,023703.000,A,4707.0558,N,12239.9372,W,66.60,214.82,101110,,,A*4A
$GPRMC,023708.000,A,4706.9782,N,12240.0123,W,66.95,213.69,101110,,,A*45
$GPRMC,023713.000,A,4706.8995,N,12240.0881,W,66.97,213.52,101110,,,A*4D
$GPRMC,023718.000,A,4706.8222,N,12240.1644,W,68.68,213.26,101110,,,A*4A
$GPRMC,023723.000,A,4706.7451,N,12240.2429,W,68.50,212.33,101110,,,A*4B
$GPRMC,023728.000,A,4706.6646,N,12240.3131,W,65.53,207.92,101110,,,A*49
$GPRMC,023733.000,A,4706.5780,N,12240.3646,W,66.80,201.77,101110,,,A*4C
$GPRMC,023738.000,A,4706.4923,N,12240.4103,W,65.44,200.48,101110,,,A*46
$GPRMC,023743.000,A,4706.4094,N,12240.4573,W,62.86,200.85,101110,,,A*44
$GPRMC,023748.000,A,4706.3266,N,12240.4999,W,62.60,197.51,101110,,,A*43
$GPRMC,023753.000,A,4706.2452,N,12240.5328,W,60.77,195.68,101110,,,A*44
$GPRMC,023758.000,A,4706.1612,N,12240.5644,W,60.69,198.18,101110,,,A*40
$GPRMC,023803.000,A,4706.0826,N,12240.6171,W,62.03,211.75,101110,,,A*4C
$GPRMC,023808.000,A,4706.0234,N,12240.7063,W,60.14,227.39,101110,,,A*44
$GPRMC,023813.000,A,4705.9780,N,12240.8085,W,60.16,235.93,101110,,,A*48
$GPRMC,023818.000,A,4705.9328,N,12240.9115,W,58.60,234.84,101110,,,A*41
$GPRMC,023823.000,A,4705.8609,N,12240.9874,W,60.76,223.86,101110,,,A*48
$GPRMC,023828.000,A,4705.7968,N,12241.0692,W,61.69,223.48,101110,,,A*47
$GPRMC,023833.000,A,4705.7351,N,12241.1500,W,60.01,222.26,101110,,,A*42
$GPRMC,023838.000,A,4705.6714,N,12241.2300,W,59.21,216.24,101110,,,A*45
$GPRMC,023843.000,A,4705.5930,N,12241.2732,W,60.11,198.18,101110,,,A*44
$GPRMC,023848.000,A,4705.5109,N,12241.3024,W,60.71,194.89,101110,,,A*4E
$GPRMC,023853.000,A,4705.4310,N,12241.3358,W,59.41,196.69,101110,,,A*42
$GPRMC,023858.000,A,4705.3487,N,12241.3672,W,61.63,194.99,101110,,,A*4C
$GPRMC,023903.000,A,4705.2634,N,12241.3945,W,62.03,192.62,101110,,,A*44
$GPRMC,023908.000,A,4705.1811,N,12241.4052,W,60.36,182.33,101110,,,A*4C
$GPRMC,023913.000,A,4705.0963,N,12241.4078,W,60.26,181.93,101110,,,A*43
$GPRMC,023918.000,A,4705.0162,N,12241.4136,W,60.29,182.64,101110,,,A*4E
$GPRMC,023923.000,A,4704.9345,N,12241.4206,W,59.26,181.93,101110,,,A*47
$GPRMC,023928.000,A,4704.8526,N,12241.4276,W,58.89,183.43,101110,,,A*42
$GPRMC,023933.000,A,4704.7708,N,12241.4326,W,58.64,181.36,101110,,,A*4E
$GPRMC,023938.000,A,4704.6916,N,12241.4369,W,57.34,183.04,101110,,,A*47
$GPRMC,023943.000,A,4704.6129,N,12241.4468,W,56.29,188.68,101110,,,A*45
$GPRMC,023948.000,A,4704.5382,N,12241.4810,W,56.19,202.64,101110,,,A*43
$GPRMC,023953.000,A,4704.4717,N,12241.5365,W,54.63,207.54,101110,,,A*41
$GPRMC,023958.000,A,4704.4029,N,12241.5890,W,55.42,205.92,101110,,,A*4B
$GPRMC,024003.000,A,4704.3333,N,12241.6385,W,54.79,207.80,101110,,,A*40
$GPRMC,024008.000,A,4704.2651,N,12241.6829,W,52.40,200.48,101110,,,A*49
$GPRMC,024013.000,A,4704.1908,N,12241.6978,W,53.33,183.99,101110,,,A*47
$GPRMC,024018.000,A,4704.1139,N,12241.6909,W,54.53,176.02,101110,,,A*49
$GPRMC,024023.000,A,4704.0370,N,12241.6845,W,55.12,177.38,101110,,,A*4A
$GPRMC,024028.000,A,4703.9623,N,12241.6788,W,54.57,176.76,101110,,,A*49
$GPRMC,024033.000,A,4703.8841,N,12241.6730,W,54.85,175.48,101110,,,A*4A
$GPRMC,024038.000,A,4703.8113,N,12241.6596,W,52.03,170.22,101110,,,A*40
$GPRMC,024043.000,A,4703.7441,N,12241.6172,W,52.48,155.72,101110,,,A*42
$GPRMC,024048.000,A,4703.6785,N,12241.5505,W,55.02,150.05,101110,,,A*48
$GPRMC,024053.000,A,4703.6114,N,12241.5013,W,55.47,153.57,101110,,,A*4B
$GPRMC,024058.000,A,4703.5410,N,12241.4666,W,53.00,162.03,101110,,,A*41
$GPRMC,024103.000,A,4703.4628,N,12241.4679,W,55.67,183.94,101110,,,A*4E
$GPRMC,024108.000,A,4703.3880,N,12241.4968,W,55.27,199.49,101110,,,A*4E
$GPRMC,024113.000,A,4703.3197,N,12241.5484,W,55.21,213.23,101110,,,A*4E
$GPRMC,024118.000,A,4703.2569,N,12241.6156,W,55.84,215.52,101110,,,A*47
$GPRMC,024123.000,A,4703.1925,N,12241.6814,W,56.18,215.03,101110,,,A*45
$GPRMC,024128.000,A,4703.1279,N,12241.7483,W,56.98,215.37,101110,,,A*40
$GPRMC,024133.000,A,4703.0623,N,12241.8142,W,57.58,214.92,101110,,,A*44
$GPRMC,024138.000,A,4702.9963,N,12241.8830,W,58.30,215.28,101110,,,A*41
$GPRMC,024143.000,A,4702.9284,N,12241.9539,W,59.52,215.66,101110,,,A*45
$GPRMC,024148.000,A,4702.8606,N,12242.0247,W,60.16,215.45,101110,,,A*4E
$GPRMC,024153.000,A,4702.7924,N,12242.0963,W,60.74,215.18,101110,,,A*45
$GPRMC,024158.000,A,4702.7230,N,12242.1686,W,61.97,215.77,101110,,,A*40
$GPRMC,024203.000,A,4702.6527,N,12242.2414,W,62.48,215.50,101110,,,A*43
$GPRMC,024208.000,A,4702.5812,N,12242.3166,W,63.20,215.40,101110,,,A*4F
$GPRMC,024213.000,A,4702.5093,N,12242.3891,W,63.58,215.18,101110,,,A*47
$GPRMC,024218.000,A,4702.4365,N,12242.4628,W,64.13,213.54,101110,,,A*4A
$GPRMC,024223.000,A,4702.3604,N,12242.5292,W,64.46,208.45,101110,,,A*49
$GPRMC,024228.000,A,4702.2812,N,12242.5908,W,65.41,207.20,101110,,,A*48
$GPRMC,024233.000,A,4702.1995,N,12242.6523,W,66.30,206.93,101110,,,A*45
$GPRMC,024238.000,A,4702.1168,N,12242.7122,W,66.71,206.71,101110,,,A*49
$GPRMC,024243.000,A,4702.0331,N,12242.7751,W,66.85,207.46,101110,,,A*46
$GPRMC,024248.000,A,4701.9507,N,12242.8397,W,67.16,207.51,101110,,,A*48
$GPRMC,024253.000,A,4701.8672,N,12242.9023,W,67.50,207.33,101110,,,A*49
